LONG,LAT,F_NAME,HMIS_,DIST,DIVISION,F_TYPE,AGENCY
36.84009,-1.137387,ANMER DISP,190,KIAMBU,KIAMBAA,4,MOH
36.6347,-0.978523,BATHI DISP,192,KIAMBU,LARI,4,MISS
36.6171,-1.08108,BIBIRIONI DISP,3731,KIAMBU,LIMURU,4,MISS
36.6896,-1.21635,CHURA DISP,,KIAMBU,KIKUYU,4,MOH
36.7613,-1.1328,CIANDA DISP,193,KIAMBU,KIAMBAA,4,MOH
36.7044,-0.991187,GACHOIRE DISP,,KIAMBU,LARI,4,MOH
36.791234,-1.182312,GATHANGA DISP,931,KIAMBU,KIAMBAA,4,MOH
36.7054,-1.06802,GATHANGARI DISP,,KIAMBU,GITHUNGURI,4,MOH
36.8279,-1.09883,GIATHIEKO DISP,,KIAMBU,GITHUNGURI,4,MOH
36.65,-1.27,GICHARANI DISP,3638,KIAMBU,KIKUYU,4,MISS
36.6689,-1.16126,GICHURU DISP,198,KIAMBU,LIMURU,4,MOH
36.7462,-1.083,GITHIGA HEALTH CENTRE,2401,KIAMBU,GITHUNGURI,3,MOH
36.788,-1.05339,GITHUNGURI HEALTH CENTRE,233,KIAMBU,GITHUNGURI,3,MOH
36.6896,-1.0742,GITIHA HEALTH CENTRE,2398,KIAMBU,GITHUNGURI,3,MOH
36.56731,-1.196205,HOLY CROSS (THIGIO) DISP,612,KIAMBU,LIMURU,4,MISS
36.801234,-1.14234,KAARIA DISP,,KIAMBU,KIAMBAA,4,MOH
36.7467,-1.05093,KAGAA HEALTH CENTRE,2400,KIAMBU,GITHUNGURI,3,MOH
36.743433,-1.001209,KAGWE CATHOLIC MISSION DISP,207,KIAMBU,LARI,4,MISS
36.7392,-1.00448,KAGWE HEALTH CENTRE,2447,KIAMBU,LARI,3,MOH
36.624,-0.870245,KAMAE FOREST DISP,208,KIAMBU,LARI,4,MOH
36.87,-1.1,KAMBUI DISP,209,KIAMBU,GITHUNGURI,4,MISS
36.7082,-1.01588,KAMBURU DISP,4831,KIAMBU,LARI,4,MOH
36.5765,-1.28069,KARAI HEALTH CENTRE,,KIAMBU,KIKUYU,3,MOH
36.82123,-1.174213,KARIA DISP,210,KIAMBU,KIAMBAA,4,MOH
36.78,-1.22,KARURA SDA DISP,,KIAMBU,KIAMBAA,4,MISS
36.7399,-1.18431,KARURI HEALTH CENTRE,261,KIAMBU,KIAMBAA,3,MOH
36.658545,-1.122966,KENTMERE DISP,2413,KIAMBU,LIMURU,4,MISS
36.8456,-1.13999,KIAMBAA DISP,,KIAMBU,KIAMBAA,4,MOH
36.82993,-1.16938,KIAMBU DISTRICT HOSPITAL,251,KIAMBU,KIAMBAA,1,MOH
36.702703,-1.10046,KIAWAROGA DISP,326,KIAMBU,LIMURU,4,MOH
36.783449,-1.157365,KIBUBUTI HEALTH CENTRE,2412,KIAMBU,KIAMBAA,3,MISS
36.648379,-0.921169,KIENI FOREST DISP,215,KIAMBU,LARI,4,MOH
36.619369,-0.858108,KIENI HEALTH CENTRE,2448,KIAMBU,LARI,3,MOH
36.82658,-1.031082,KIGUMO HEALTH CENTRE,237,KIAMBU,GITHUNGURI,3,MOH
36.7386,-1.21091,KIHARA HEALTH CENTRE,216,KIAMBU,KIAMBAA,3,MOH
36.59431,-0.94349,KIJABE HOSPITAL,252,KIAMBU,LARI,1,MISS
36.8684,-1.1077,KIMATHI DISP,,KIAMBU,GITHUNGURI,4,MOH
36.61036,-0.911261,KINALE FOREST DISP,217,KIAMBU,LARI,4,MOH
36.6157,-0.908237,KINALE HEALTH CENTRE,2452,KIAMBU,LARI,3,MOH
36.8203,-1.03614,KIRATINA DISP,,KIAMBU,GITHUNGURI,4,MOH
36.6964,-0.985135,KIRIITA DISP,213,KIAMBU,LARI,4,MOH
36.63,-0.97,KIRIITA MISSION HC,235,KIAMBU,LARI,3,MISS
36.605,-1.02791,LARI HEALTH CENTRE,239,KIAMBU,LARI,3,MOH
36.6366,-1.11593,LIMURU HEALTH CENTRE,240,KIAMBU,LIMURU,3,MOH
36.830408,-1.102112,LIOKI MISSION DISP,3090,KIAMBU,GITHUNGURI,4,MISS
36.771525,-1.192355,LITTLE SERVANT OF SACRET HEART D,435,KIAMBU,KIAMBAA,4,MISS
36.6136,-1.28,LUSIGETTI HEALTH CENTRE,2437,KIAMBU,KIKUYU,3,MOH
36.8,-1.12,MIGAA DISP,321,KIAMBU,KIAMBAA,4,MOH
36.8,-1.07,MIGUTA DISP,,KIAMBU,GITHUNGURI,4,MISS
36.7,-1.18,MOST PRECIOUS BLOOD DISP,3903,KIAMBU,LIMURU,4,MISS
36.7257,-1.13378,NAZARETH HOSPITAL,255,KIAMBU,LIMURU,1,MISS
36.5942,-1.16975,NDEIYA HEALTH CENTRE,3928,KIAMBU,LIMURU,3,MOH
36.60586,-1.142793,NDERU DISP,221,KIAMBU,LIMURU,4,MOH
36.70945,-0.984242,NDURIRI DISP,,KIAMBU,LARI,4,MISS
36.70901,-0.984685,NDURIRI DISP,3974,KIAMBU,LARI,4,MOH
36.617117,-1.069369,NGARARIGA MISSION DISP,3100,KIAMBU,LIMURU,4,MISS
36.670303,-1.169356,NGECHA ORTHODOX  DISP,,KIAMBU,LIMURU,4,MISS
36.863964,-1.092343,NGEWA HEALTH CENTRE,243,KIAMBU,GITHUNGURI,3,MOH
36.8716,-1.10326,NYAGA HEALTH CENTRE,,KIAMBU,GITHUNGURI,3,MOH
36.7031,-1.20204,NYATHUNA HEALTH CENTRE,260,KIAMBU,KIKUYU,3,MOH
36.87118,-1.049952,P.C.E.A GATHIRUINI DISP,,KIAMBU,GITHUNGURI,4,MISS
36.6667,-1.26667,P.C.E.A. KIKUYU HOSPITAL,2441,KIAMBU,KIKUYU,1,MISS
36.661129,-0.790616,RAGIA FOREST DISP,225,KIAMBU,LARI,4,MOH
36.6759,-0.791728,RAGIA HEALTH CENTRE,2449,KIAMBU,LARI,3,MOH
36.6,-1.18,THIGIO MISSION DISP,227,KIAMBU,LIMURU,4,MISS
36.6493,-1.12859,TIGONI SUB-DISTRICT HOSPITAL,257,KIAMBU,LIMURU,1,MOH
36.8083,-1.13366,TIN'GAN'GA DISP,229,KIAMBU,KIAMBAA,4,MISS
36.6778,-1.04691,UPLANDS DISP,230,KIAMBU,LARI,4,MOH
36.7086,-1.2526,UTHIRU DISP,231,KIAMBU,KIKUYU,4,MOH
36.7261,-1.21737,WANGIGE HEALTH CENTRE,249,KIAMBU,KIKUYU,3,MOH
37.2305,-0.563405,BARICHO HEALTH CENTRE,297,KIRINYAGA,NDIA,3,MOH
37.2387,-0.568805,BARICHO MISS H C,3082,KIRINYAGA,NDIA,3,MISS
37.351234,-0.42234,CASTLE FOREST DISP,3763,KIRINYAGA,GICHUGU,4,MOH
37.2597,-0.49407,CHRISTIAN COMMUNITY SERVICES BAS,,KIRINYAGA,CENTRAL,4,MISS
37.3783,-0.75776,CIAGINI DISP,86,KIRINYAGA,MWEA,4,MOH
37.400901,-0.551802,DIFATHAAS CATHOLIC DISP,4713,KIRINYAGA,MWEA,4,MISS
37.4125,-0.59514,DIFATHAS DISP,263,KIRINYAGA,MWEA,4,MOH
37.4056,-0.50091,GACHIONGO DISP,264,KIRINYAGA,GICHUGU,4,MOH
37.2483,-0.48343,GATHAMBI DISP,265,KIRINYAGA,CENTRAL,4,MOH
37.4391,-0.71293,GATHIGIRIRI DISP,266,KIRINYAGA,MWEA,4,MOH
,,GATITHI DISP,,KIRINYAGA,CENTRAL,4,MISS
37.316,-0.45683,GATUGURA DISP,267,KIRINYAGA,GICHUGU,4,MOH
37.3798,-0.45759,GATUMBI S D A DISP,268,KIRINYAGA,GICHUGU,4,MISS
37.284,-0.46443,GATWE DISP,269,KIRINYAGA,CENTRAL,4,MOH
37.38695,-0.497068,GIRIAMBU ACK DISP,,KIRINYAGA,GICHUGU,4,MISS
37.1792,-0.62098,GITHUANI C P K DISP,4716,KIRINYAGA,NDIA,4,MISS
37.3836,-0.47051,GITHURE DISP,4724,KIRINYAGA,GICHUGU,4,MISS
37.3988,-0.5237,JESMOND MBURI DISP,,KIRINYAGA,GICHUGU,4,MISS
37.3175,-0.51458,KABARE DISP,270,KIRINYAGA,GICHUGU,4,MOH
37.227,-0.63009,KAGIO CATHOLIC DISP,271,KIRINYAGA,NDIA,4,MISS
37.23641,-0.47139,KAGUMO DISP,272,KIRINYAGA,NDIA,4,MOH
,,KAGUMO LIFE GIVING DISP,,KIRINYAGA,NDIA,4,MISS
37.3099,-0.44391,KAMWETI DISP,274,KIRINYAGA,GICHUGU,4,MOH
37.3038,-0.66505,KANDONGO DISP,275,KIRINYAGA,MWEA,4,MOH
37.2719,-0.48951,KANGAITA DISP,276,KIRINYAGA,CENTRAL,4,MOH
37.221234,-0.582134,KANGARU HEALTH CENTRE,908,KIRINYAGA,NDIA,3,MOH
37.2726,-0.50243,KARAINI C P K DISP,4719,KIRINYAGA,CENTRAL,4,MISS
,,KARIRA HOSPITAL,391,KIRINYAGA,,1,MISS
37.3456,-0.45683,KARUMANDI DISP,277,KIRINYAGA,GICHUGU,4,MOH
37.27838,-0.49509,KERUGOYA CATHOLIC DISP,278,KIRINYAGA,CENTRAL,4,MISS
37.27819,-0.50107,KERUGOYA CPK DISP,279,KIRINYAGA,CENTRAL,4,MISS
37.2805,-0.50132,KERUGOYA DISTRICT HOSPITAL,301,KIRINYAGA,CENTRAL,1,MOH
37.4018,-0.47279,KIAMUTUGU HEALTH CENTRE,280,KIRINYAGA,GICHUGU,3,MOH
37.3,-0.48,KIANDAI ACK DISP,4721,KIRINYAGA,GICHUGU,4,MISS
37.2073,-0.48115,KIANGAI DISP,281,KIRINYAGA,NDIA,4,MOH
37.3129,-0.49635,KIANG'OMBE DISP,282,KIRINYAGA,GICHUGU,4,MOH
37.1624,-0.5883,KIANJEGE DISP,283,KIRINYAGA,NDIA,4,MOH
37.3296,-0.50091,KIANYAGA H C,299,KIRINYAGA,GICHUGU,3,MOH
37.3426,-0.51079,KIANYAGA MISS H C,3081,KIRINYAGA,GICHUGU,3,MISS
37.2035,-0.51231,KIARAGANA DISP,284,KIRINYAGA,NDIA,4,MOH
37.1495,-0.55638,KIBIRIGWI DISP,285,KIRINYAGA,NDIA,4,MOH
37.3651,-0.61705,KIMBIMBI HEALTH CENTRE,300,KIRINYAGA,MWEA,3,MOH
,,KIUMBU DISP,,KIRINYAGA,NDIA,4,MISS
37.474,-0.72129,KIUMBUINI DISP,286,KIRINYAGA,MWEA,4,MOH
37.32517,-0.56432,KUTUS CATHOLIC DISP,4714,KIRINYAGA,CENTRAL,4,MISS
,,MAGDALENE ACK DISP,,KIRINYAGA,GICHUGU,4,MISS
37.4,-0.48,MBIRI ACK DISP,4727,KIRINYAGA,GICHUGU,4,MISS
37.29279,-0.52252,MBURI ACK DISP,4729,KIRINYAGA,CENTRAL,4,MISS
,,MT KENYA EAST ACK DISP,,KIRINYAGA,GICHUGU,4,MISS
37.30495,-0.432433,MUGUMO (ACK) DISP,4720,KIRINYAGA,GICHUGU,4,MISS
37.4634,-0.67797,MUMBUINI DISP,3860,KIRINYAGA,MWEA,4,MOH
37.254,-0.621,MUNGANGA CPK DISP,289,KIRINYAGA,NDIA,4,MISS
37.44077,-0.57294,MURINDUKO DISP,3035,KIRINYAGA,MWEA,4,MOH
37.3038,-0.73269,MUTHITHI DISP,290,KIRINYAGA,MWEA,4,MOH
37.23,-0.48,MUTIRA ACK DISP,4718,KIRINYAGA,NDIA,4,MISS
,,MUTITHI DISP,,KIRINYAGA,MWEA,4,MOH
37.34924,-0.66137,MWEA MISS HOSPITAL,302,KIRINYAGA,MWEA,1,MISS
,,NGARIAMA DISP,,KIRINYAGA,MWEA,4,MOH
37.3828,-0.50167,NGIRIAMBU DISP,4728,KIRINYAGA,GICHUGU,4,MISS
37.316,-0.68633,NGUKA DISP,292,KIRINYAGA,MWEA,4,MOH
37.2924,-0.70913,NJEGAS DISP,293,KIRINYAGA,MWEA,4,MOH
37.2187,-0.67113,SAGANA H C,304,KIRINYAGA,NDIA,3,MOH
37.2308,-0.65213,SAGANA MISS DISP,294,KIRINYAGA,NDIA,4,MISS
37.3258,-0.51838,ST ANDREWS MBIRI DISP,3972,KIRINYAGA,GICHUGU,4,MISS
37.262,-0.72281,ST LUKE'S MUNGAGA DISP,,KIRINYAGA,MWEA,4,MISS
,,ST LUKES MURIGARIGA DISP,,KIRINYAGA,,4,MISS
,,ST TERESA DISP,,KIRINYAGA,MWEA,4,MOH
37.3327,-0.70457,THIBA DISP,295,KIRINYAGA,MWEA,4,MOH
37.3585,-0.43935,THUMAITA DISP,4723,KIRINYAGA,GICHUGU,4,MISS
36.852509,-0.739723,AIC MUNUNGA DISP,389,MARAGUA,KIGUMO,4,MISS
37.19762,-0.9064,DON BOSCO MAKUYU DISP,4162,MARAGUA,MAKUYU,4,MISS
36.977445,-0.852765,GAICHANJIRU MISSION HOSPITAL,388,MARAGUA,KANDARA,1,MISS
36.9013,-0.761775,GIKOE DISP,315,MARAGUA,KIGUMO,4,MOH
36.9,-0.82,GITHUMU HEALTH CENTRE,,MARAGUA,KANDARA,3,MISS
36.8668,-0.81464,GITURU DISP,320,MARAGUA,KANDARA,4,MISS
37.070665,-0.816915,ICHAGAKI HEALTH CENTRE,390,MARAGUA,MARAGUA,3,MISS
37.080265,-0.891818,KAGUMOINI DISP,,MARAGUA,KANDARA,4,MOH
36.96123,-0.881234,KAGUTHI DISP,2710,MARAGUA,KANDARA,4,MOH
37.07856,-0.85942,KAGWATHI SDA DISP,,MARAGUA,MARAGUA,4,MISS
37.17814,-0.84289,KAMAHUHA DISP,328,MARAGUA,MAKUYU,4,MOH
37.25123,-0.812354,KAMBITI DISP,3367,MARAGUA,MAKUYU,4,MOH
36.976049,-0.785806,KAMUNGANGA DISP,4844,MARAGUA,KIGUMO,4,MISS
37.038699,-0.897239,KANDARA HEALTH CENTRE,377,MARAGUA,KANDARA,3,MOH
36.797738,-0.781589,KANDERENDU DISP,,MARAGUA,KIGUMO,4,MOH
36.851234,-0.781234,KANGARI DISP,330,MARAGUA,KIGUMO,4,MOH
37.01707,-0.86633,KARITI DISP,2709,MARAGUA,KANDARA,4,MOH
36.97549,-0.83194,KARIUA DISP,333,MARAGUA,KANDARA,4,MOH
36.827,-0.748188,KINYONA DISP,343,MARAGUA,KIGUMO,4,MISS
37.18661,-0.89406,MAKUYU HEALTH CENTRE,384,MARAGUA,MAKUYU,3,MOH
37.12663,-0.78693,MARAGUA DISTRICT HOSPITAL (RHTC),395,MARAGUA,MARAGUA,1,MOH
37.2,-0.77,MARAGUA RIDGE HEALTH CENTRE,348,MARAGUA,MARAGUA,3,MOH
37.209983,-0.803599,MARANJAU GK PRISON DISP,361,MARAGUA,MAKUYU,4,MOH
36.9348,-0.79846,MARIRA DISP,350,MARAGUA,KIGUMO,4,MISS
37.0772,-0.84768,MUGUMOINI DISP,358,MARAGUA,MARAGUA,4,MOH
37.05976,-0.92799,MURUKA DISP,3414,MARAGUA,KANDARA,4,MOH
36.951802,-0.817568,MUTHERU DISP,363,MARAGUA,KANDARA,4,MOH
37.0485,-0.810626,MUTHITHI DISP,364,MARAGUA,MARAGUA,4,MISS
37.044121,-0.801467,MUTHITHI DISP,,MARAGUA,MARAGUA,4,MOH
37.0322,-0.93433,NAARO DISP,367,MARAGUA,KANDARA,4,MOH
37.0593,-0.87088,NGURUWENI DISP,368,MARAGUA,KANDARA,4,MOH
37.00208,-0.89808,RUCHU DISP,372,MARAGUA,KANDARA,4,MISS
37.15,-0.87,SABASABA (CATHOLIC ) DISP,3641,MARAGUA,MAKUYU,4,MISS
37.1361,-0.87501,SABASABA SUB HEALTH CENTRE,373,MARAGUA,MARAGUA,3,MOH
36.892918,-0.776771,TATA HANAH DISP,,MARAGUA,KIGUMO,4,MISS
36.8478,-0.61184,GACHARAGENI DISP,305,MURANGA,MATHIOYA,4,MOH
37.0161,-0.627688,GAKURWE DISP,306,MURANGA,KIHARU,4,MOH
36.93,-0.7,GATANGARA DISP,309,MURANGA,KANGEMA,4,MOH
36.86,-0.72,GATARA DISP,352,MURANGA,KANGEMA,4,MOH
36.8923,-0.740291,GATHAITHI DISP,311,MURANGA,KAHURO,4,MOH
,,GATHERA DISP,,MURANGA,KANGEMA,4,MISS
37.0632,-0.728944,GATHERU DISP,312,MURANGA,KAHURO,4,MOH
37.10059,-0.64613,GATURI DISP,313,MURANGA,KIHARU,4,MISS
37.014,-0.676591,GIKUI DISP,316,MURANGA,KANGEMA,4,MOH
37.07393,-0.74295,GITARO DISP,317,MURANGA,KAHURO,4,MOH
37.1018,-0.62973,GITHANGA DISP,4318,MURANGA,KIHARU,4,MISS
37.0255,-0.655967,GITUGI DISP,319,MURANGA,MATHIOYA,4,MOH
36.8387,-0.704469,ICHICHI DISP,322,MURANGA,KANGEMA,4,MOH
37.028378,-0.596847,IRURI DISP,323,MURANGA,MATHIOYA,4,MOH
36.9821,-0.620072,KAGUMOINI DISP,325,MURANGA,MATHIOYA,4,MOH
37.04,-0.71,KAHUHIA ACK DISP,,MURANGA,KAHURO,4,MISS
36.8629,-0.610663,KAIRO DISP,327,MURANGA,MATHIOYA,4,MOH
37.1921,-0.741239,KAMBIRWA DISP,329,MURANGA,KIHARU,4,MOH
36.97065,-0.68709,KANGEMA HEALTH CENTRE,378,MURANGA,KANGEMA,3,MOH
36.9522,-0.619082,KANJAMA DISP,2713,MURANGA,MATHIOYA,4,MOH
36.8829,-0.686016,KANYENYAINI DISP,331,MURANGA,KANGEMA,4,MOH
37.12342,-0.751234,KARAHA DISP,4594,MURANGA,KIHARU,4,MISS
37.0636,-0.697581,KIAMARA DISP,334,MURANGA,KANGEMA,4,MOH
37.118469,-0.760811,KIANGOCHI DISP,335,MURANGA,KIHARU,4,MOH
36.98927,-0.69231,KIANGUNYI MISSION DISP,336,MURANGA,KANGEMA,4,MISS
36.91892,-0.698198,KIBUTHA DISP,337,MURANGA,KANGEMA,4,MOH
37.162341,-0.673212,KIGETUINI DISP,338,MURANGA,KIHARU,4,MOH
36.88874,-0.648649,KIHOYA DISP,340,MURANGA,MATHIOYA,4,MOH
36.97,-0.61,KIHURO ACK DISP,,MURANGA,MATHIOYA,4,MISS
37.0672,-0.767812,KIRIA DISP,344,MURANGA,KAHURO,4,MOH
36.95155,-0.59941,KIRIAINI DISP,345,MURANGA,MATHIOYA,4,MOH
36.9482,-0.597467,KIRIAINI MISS. HOSPITAL,2379,MURANGA,MATHIOYA,1,MISS
37.02947,-0.71178,KIROGO HEALTH CENTRE,381,MURANGA,KAHURO,3,MOH
36.96,-0.66,MIHUTI DISP,,MURANGA,MATHIOYA,4,MISS
37.09145,-0.63969,MUGEKA HEALTH CENTRE,354,MURANGA,KIHARU,3,MOH
37.02561,-0.74839,MUGOIRI  MISSION DISP,356,MURANGA,KAHURO,4,MISS
37.15985,-0.71587,MURANGA DISTRICT HOSPITAL,393,MURANGA,KIHARU,1,MOH
36.8958,-0.718632,MURARANDIA DISP,362,MURANGA,KAHURO,4,MOH
36.97306,-0.74315,MURIRANJAS SUB-DISTRICT HOSP.,394,MURANGA,KAHURO,1,MOH
36.95746,-0.63943,NYAKIANGA DISP,369,MURANGA,MATHIOYA,4,MOH
36.9328,-0.659602,RWATHIA DISP,2712,MURANGA,MATHIOYA,4,MOH
36.831081,-0.6667,TUTHU SUB HEALTH CENTRE,386,MURANGA,KANGEMA,3,MOH
36.98123,-0.591234,WAHUNDURA DISP,3398,MURANGA,MATHIOYA,4,MOH
37.0117,-0.724185,WANJENGI DISP,375,MURANGA,KAHURO,4,MOH
36.84123,-0.651234,WANJERERE DISP,374,MURANGA,MATHIOYA,4,MOH
36.97671,-0.71253,WEITHAGA DISP,3396,MURANGA,KAHURO,4,MISS
36.627174,-0.767321,AIC MUKEU DISP,,NYANDARUA,SOUTH KINANGOP,4,MISS
36.4433,-0.002742,BAARI DISP,166,NYANDARUA,NDARAGWA,4,MOH
36.5714,-0.833952,BAMBOO DISP,3940,NYANDARUA,SOUTH KINANGOP,4,MOH
36.5919,-0.610526,ENGINEER HEALTH CENTRE,398,NYANDARUA,NORTH KINANGOP,3,MOH
36.5604,-0.35786,GETA BUSH DISP,399,NYANDARUA,KIPIPIRI,4,MOH
36.628,-0.486639,GETA FOREST DISP,400,NYANDARUA,NORTH KINANGOP,4,MOH
36.5669,-0.801432,HENI DISP,402,NYANDARUA,SOUTH KINANGOP,4,MOH
36.5467,-0.030709,HOLY FAMILY CATHOLIC DISP,3603,NYANDARUA,NDARAGWA,4,MISS
36.4771,0.039534,KAHEMBE DISP,4506,NYANDARUA,NDARAGWA,4,MOH
36.419674,-0.210357,KAIMBAGA DISP,,NYANDARUA,OL KALOU,4,MOH
36.6182,-0.78127,KARANGATHA HEALTH CENTRE,427,NYANDARUA,SOUTH KINANGOP,3,MOH
36.5649,-0.882732,KENTON GITWE DISP,3281,NYANDARUA,SOUTH KINANGOP,4,MOH
36.569856,-0.421866,KIHINGO CATHOLIC DISP,4542,NYANDARUA,KIPIPIRI,4,MISS
36.4765,-0.186805,KIRIMA DISP,403,NYANDARUA,NDARAGWA,4,MOH
36.421123,-0.092321,LESHAU PONDO HEALTH CENTRE,428,NYANDARUA,OL JORO OROK,3,MOH
36.3269,-0.144529,MAINA & MWANGI HEALTH CENTRE,429,NYANDARUA,OL JORO OROK,3,MOH
36.432321,0.062321,MAINA VILLAGE DISP,3211,NYANDARUA,NDARAGWA,4,MOH
36.4953,-0.35786,MANUNGA DISP,404,NYANDARUA,KIPIPIRI,4,MOH
36.3223,-0.34225,MAWINGU DISP,,NYANDARUA,OL KALOU,4,MOH
36.254,-0.206317,MIRANGINE HEALTH CENTRE,431,NYANDARUA,OL KALOU,3,MOH
36.4882,-0.605662,MURUNGARU DISP,405,NYANDARUA,NORTH KINANGOP,4,MOH
36.6279,-0.565601,MUTARAKWA DISP,406,NYANDARUA,NORTH KINANGOP,4,MOH
36.61817,-0.525748,NANDARASI DISP,,NYANDARUA,NORTH KINANGOP,4,MOH
36.5441,-0.040465,NDARAGWA HEALTH CENTRE,407,NYANDARUA,NDARAGWA,3,MOH
36.4413,-0.338998,NDEMI DISP,408,NYANDARUA,KIPIPIRI,4,MOH
36.332321,-0.312321,NEW MAWINGO DISP,409,NYANDARUA,OL KALOU,4,MOH
36.292321,-0.342321,NEW TUMAINI DISP,,NYANDARUA,OL KALOU,4,MOH
36.2833,-0.095749,NGANO H C,410,NYANDARUA,OL JORO OROK,3,MOH
36.23,-0.313633,NGORIKA DISP,412,NYANDARUA,OL KALOU,4,MOH
36.669,-0.734441,NJABINI CATHOLIC DISP,413,NYANDARUA,SOUTH KINANGOP,4,MISS
36.6657,-0.721433,NJABINI HEALTH CENTRE,432,NYANDARUA,SOUTH KINANGOP,3,MOH
36.5833,-0.5992,NORTH KINANGOP CATHOLIC HOSPITAL,436,NYANDARUA,NORTH KINANGOP,1,MISS
36.359734,0.013654,NYAHURURU CATHOLIC MISSION DISP,397,NYANDARUA,OL JORO OROK,4,MISS
36.3418,0.023274,NYAHURURU DISTRICT HOSPITAL,437,NYANDARUA,OL JORO OROK,1,MOH
36.269,-0.283714,NYS TUMAINI DISP,3361,NYANDARUA,OL KALOU,4,MOH
36.3535,-0.099001,OL JORO OROK CATHOLIC DISP,3634,NYANDARUA,OL JORO OROK,4,MISS
36.3483,-0.046969,OL'BOROSAT DISP,414,NYANDARUA,OL JORO OROK,4,MOH
36.5213,-0.405989,OLD MAWINGO DISP,415,NYANDARUA,KIPIPIRI,4,MOH
36.3735,-0.2707,OL'KALOU DISTRICT HOSPITAL,438,NYANDARUA,OL KALOU,1,MOH
36.32708,-0.219369,PASSENGA CATHOLIC DISP,4546,NYANDARUA,OL KALOU,4,MISS
36.5792,-0.123716,PESI DISP,416,NYANDARUA,NDARAGWA,4,MOH
36.5649,-0.248593,SHAMATA DISP,417,NYANDARUA,NATIONAL PARK,4,MOH
36.2833,-0.043717,SILIBWET DISP,418,NYANDARUA,OL JORO OROK,4,MOH
36.250195,-0.217278,ST MATTHEWS AND SARAH CATHOLIC D,4356,NYANDARUA,OL KALOU,4,MISS
36.239229,-0.303998,ST. MARY'S DISP,,NYANDARUA,OL KALOU,4,MISS
36.4621,-0.0977,SUBUKU DISP,420,NYANDARUA,NDARAGWA,4,MOH
36.2638,-0.271357,TUMAINI DISP,423,NYANDARUA,OL KALOU,4,MOH
36.4426,-0.447615,TURASHA DISP,424,NYANDARUA,KIPIPIRI,4,MOH
36.5779,0.03238,URUKU DISP,425,NYANDARUA,NDARAGWA,4,MOH
36.5122,-0.307129,WANJOHI HEALTH CENTRE,434,NYANDARUA,KIPIPIRI,3,MOH
36.5747,-0.681759,WERU DISP,426,NYANDARUA,SOUTH KINANGOP,4,MOH
37.020721,-0.501352,AGUTHI DISP,440,NYERI,TETU,4,MOH
36.874537,-0.331019,AMBONI DISP,441,NYERI,KIENI WEST,4,MOH
36.781122,-0.221133,BELLEVUE SUB HEALTH CENTRE,442,NYERI,KIENI WEST,4,MOH
37,-0.111224,BURGURET DISP,,NYERI,KIENI EAST,4,MOH
37.173874,-0.440991,CHEHE DISP,444,NYERI,MATHIRA,4,MOH
36.91898,-0.41129,CONSOLATA HOSPITAL MATHARI,496,NYERI,MUNICIPALITY,1,MISS
36.682213,-0.281144,EMBARINGO DISP,3159,NYERI,KIENI WEST,4,MOH
36.7948,-0.307348,ENDARASHA HEALTH CENTRE,509,NYERI,KIENI WEST,3,MOH
37.026577,-0.429054,GACHIKA DISP,3158,NYERI,MUNICIPALITY,4,MOH
37.08,-0.041123,GAKAWA DISP,3364,NYERI,KIENI EAST,4,MOH
37.148198,-0.399909,GATEI DISP,445,NYERI,MATHIRA,4,MOH
37.031124,-0.07432,GATHIURU DISP,446,NYERI,KIENI EAST,4,MOH
36.90123,-0.48214,GATHUTHI DISP,3809,NYERI,TETU,4,MISS
36.9919,-0.457437,GATITU DISP,447,NYERI,TETU,4,MOH
37.16667,-0.43333,GATONDO DISP,4578,NYERI,MATHIRA,4,MOH
36.975528,-0.532145,GIATHENGE DISP,3561,NYERI,OTHAYA,4,MOH
36.92429,-0.57562,GICHICHI SUB HEALTH CENTRE,489,NYERI,OTHAYA,3,MOH
37.019369,-0.471847,GICHIRA HEALTH CENTRE,449,NYERI,TETU,3,MOH
37.03231,-0.57123,GIKONDI DISP,490,NYERI,MUKURWE-INI,4,MISS
36.8629,-0.517025,GITUGI DISP,450,NYERI,OTHAYA,4,MOH
37.13234,-0.39132,GITUNDUTI CATHOLIC DISP,4371,NYERI,MATHIRA,4,MISS
37.125226,-0.619394,GUMBA DISP,451,NYERI,MUKURWE-INI,4,MOH
37.08784,-0.354505,HOMBE DISP,452,NYERI,MATHIRA,4,MOH
37.12657,-0.47851,HOMEBASED DISP,,NYERI,MATHIRA,4,MOH
37.07877,-0.54258,ICHAMARA DISP,453,NYERI,MUKURWE-INI,4,MOH
36.883322,-0.554411,IHURIRIO DISP,454,NYERI,OTHAYA,4,MOH
36.8907,-0.412186,IHURURU DISP,455,NYERI,TETU,4,MOH
37.061123,-0.21134,ISLAND FARM DISP,456,NYERI,KIENI EAST,4,MOH
37.107207,-0.40991,ITIATI DISP,3145,NYERI,MATHIRA,4,MOH
37.18378,-0.406532,ITUNDU DISP,3154,NYERI,MATHIRA,4,MOH
36.8239,-0.402778,KABAGE DISP,457,NYERI,TETU,4,MOH
36.9261,-0.516129,KAGERE DISP,3151,NYERI,OTHAYA,4,MOH
36.902253,-0.600901,KAGICHA DISP,4575,NYERI,OTHAYA,4,MOH
37.06232,-0.52123,KAHETI DISP,503,NYERI,MUKURWE-INI,4,MISS
37.114415,-0.052703,KAHURURA DISP,458,NYERI,KIENI EAST,4,MOH
36.882433,-0.532433,KAIRUTHI DISP,4372,NYERI,OTHAYA,4,MOH
37.114415,-0.052703,KAMBURAINI DISP,3149,NYERI,KIENI EAST,4,MOH
36.931145,-0.514689,KAMOKO SUB HEALTH CENTRE,459,NYERI,OTHAYA,3,MOH
37.103604,-0.628829,KARABA DISP,460,NYERI,MUKURWE-INI,4,MOH
37.12141,-0.47896,KARATINA MISSION DISP,461,NYERI,MATHIRA,4,MISS
37.12943,-0.47339,KARATINA SUB-DISTRICT HOSPITAL,495,NYERI,MATHIRA,1,MOH
36.781123,-0.12324,KAREMENO DISP,3146,NYERI,KIENI WEST,4,MOH
36.8875,-0.578853,KARIKO DISP,462,NYERI,OTHAYA,4,MISS
36.98231,-0.52123,KARIMA DISP,463,NYERI,OTHAYA,4,MISS
36.946396,-0.590991,KIAGUTHU DISP,3152,NYERI,OTHAYA,4,MOH
36.935586,-0.576577,KIAMUYA DISP,4373,NYERI,OTHAYA,4,MOH
36.83784,-0.451351,KIANDONGORO DISP,464,NYERI,TETU,4,MOH
37.00315,-0.37923,KIGANJO MARKET DISP,466,NYERI,MUNICIPALITY,4,MOH
36.911123,-0.381122,KIHUYO DISP,4374,NYERI,MUNICIPALITY,4,MOH
36.89,-0.441123,KINUNGA HEALTH CENTRE,491,NYERI,TETU,3,MOH
36.8544,-0.435484,KIRURUMI DISP,3148,NYERI,TETU,4,MOH
37.13,-0.42,MAGUTU MISSION DISP,468,NYERI,MATHIRA,4,MISS
36.91523,-0.512321,MAHIGA  MISSION DISP,27,NYERI,OTHAYA,4,MISS
36.9,-0.31667,MARY IMMACULATE HOSP. MWEIGA,1694,NYERI,KIENI WEST,1,MISS
37.04213,-0.131124,MERE DISP,469,NYERI,KIENI EAST,4,MOH
37.07748,-0.565766,MIHUTI DISP,470,NYERI,MUKURWE-INI,4,MOH
36.93414,-0.42414,MT. KENYA HOSPITAL,497,NYERI,MUNICIPALITY,1,MOH
36.71123,-0.30123,MUGUNDA DISP,471,NYERI,KIENI WEST,4,MOH
37.04464,-0.55924,MUKURWENI SUB-DISTRICT HOSP.,498,NYERI,MUKURWE-INI,1,MOH
37.02793,-0.123874,MURERU DISP,3150,NYERI,KIENI EAST,4,MOH
37.053153,-0.593694,MUTHUTHI-INI DISP,3810,NYERI,MUKURWE-INI,4,MOH
37.10231,-0.602321,MWERU DISPENSARY,507,NYERI,MUKURWE-INI,4,MOH
37.01082,-0.317568,NAIROBI DISP,472,NYERI,KIENI EAST,4,MOH
37.03124,-0.17421,NARO MORU CATHOLIC DISP,3141,NYERI,KIENI EAST,4,MISS
37.02027,-0.16667,NARO MORU SUB HEALTH CENTRE,474,NYERI,KIENI EAST,3,MOH
37.11982,-0.301354,NDATHI DISP,476,NYERI,KIENI EAST,4,MOH
37.137387,-0.522523,NDIMAINI DISP,477,NYERI,MATHIRA,4,MOH
36.8858,-0.489695,NDUGAMANO DISP,84,NYERI,TETU,4,MOH
37.09231,-0.45123,NGANDU-KABIRUINI MISSION DISP,478,NYERI,MATHIRA,4,MISS
37.064189,-0.409901,NGORANO HEALTH CENTRE,510,NYERI,MATHIRA,3,MOH
36.863964,-0.40045,NJOGUINI DISP,3545,NYERI,TETU,4,MOH
36.992255,-0.571122,NJOKI DISP,479,NYERI,MUKURWE-INI,4,MOH
36.96113,-0.42399,NYERI PROVINCIAL GENERAL HOSP.,499,NYERI,MUNICIPALITY,2,MOH
36.94271,-0.54783,OTHAYA KARIMA MISSION DISPENSARY,481,NYERI,OTHAYA,4,MISS
36.93995,-0.5399,OTHAYA SUB-DISTRICT HOSPITAL,500,NYERI,OTHAYA,1,MOH
37.13176,-0.461712,RAGATI DISP,483,NYERI,MATHIRA,4,MOH
36.8974,-0.568548,RURUGUTI DISP,3155,NYERI,OTHAYA,4,MOH
37.006306,-0.58243,SOUTH TETU DISP,3161,NYERI,MUKURWE-INI,4,MOH
37.017117,-0.526577,TAMBAYA DISP,3153,NYERI,MUKURWE-INI,4,MOH
37.153604,-0.604505,THANGATHI DISP,484,NYERI,MUKURWE-INI,4,MOH
36.94906,-0.41983,TOWN HEALTH CENTRE,493,NYERI,MUNICIPALITY,3,MOH
37.07946,-0.48549,TUMUTUMU MISS. HOSPITAL,501,NYERI,MATHIRA,1,MISS
36.97123,-0.49213,UNJIRU DISP,485,NYERI,TETU,4,MOH
36.9319,-0.475806,WAMAGANA HEALTH CENTRE,494,NYERI,TETU,3,MOH
36.8876,-0.46819,WANDUMBI DISP,486,NYERI,TETU,4,MOH
37.11397,-0.260355,WARAZO HEALTH CENTRE,511,NYERI,KIENI EAST,3,MOH
36.75123,-0.27412,WATUKA DISP,3362,NYERI,KIENI WEST,4,MOH
36.80123,-0.291235,WENDIGA DISP,3869,NYERI,KIENI WEST,4,MOH
36.982883,-0.545046,WITIMA DISP,487,NYERI,OTHAYA,4,MOH
36.9785,-0.548387,ZAINA DISP,488,NYERI,OTHAYA,4,MOH
,,AMA HEALTH CENTRE,4732,THIKA,,3,MISS
36.802321,-0.903212,GACHEGE DISP,2420,THIKA,KAMWANGI,4,MOH
36.77253,-0.972523,GACIIKA DISP,2417,THIKA,GATUNDU,4,MOH
36.7836,-0.875356,GAKOE HC,2425,THIKA,KAMWANGI,3,MOH
36.96123,-0.93125,GATANGA DISP,307,THIKA,GATANGA,4,MOH
36.96981,-0.938288,GATANGA MISS. DISP,308,THIKA,GATANGA,4,MISS
36.8126,-0.988882,GATITU DISP,197,THIKA,GATUNDU,4,MISS
36.9573,-0.98662,GATUKUYU DISP,,THIKA,KAMWANGI,4,MISS
36.902312,-1.000232,GATUNDU GENERAL SUB-DISTRICT HOS,250,THIKA,GATUNDU,1,MOH
36.99231,-0.962413,GATUNYU DISP,2711,THIKA,GATANGA,4,MOH
36.861235,-0.853212,GATURA HEALTH CENTRE,376,THIKA,GATANGA,3,MOH
37.322321,-0.94231,GIATHANINI DISP,314,THIKA,KAKUZI,4,MOH
36.892321,-0.942312,GITARE DISP,3433,THIKA,KAMWANGI,4,MOH
37.0116,-1.17885,GITHURAI DISP,,THIKA,RUIRU,4,MOH
36.9528,-0.982097,IGEGANIA HEALTH CENTRE,258,THIKA,KAMWANGI,3,MOH
37.3513,-0.991596,ITHANGA DISP,324,THIKA,KAKUZI,4,MOH
36.7913,-0.957674,ITURAMIRA DISP,,THIKA,GATUNDU,4,MOH
36.992321,-1.03231,JUJA FARM DISP,2429,THIKA,RUIRU,4,MOH
37.0749,-1.13724,KALIMONI HEALTH CENTRE,234,THIKA,RUIRU,3,MISS
36.7972,-0.897066,KAMUNYAKA DISP,,THIKA,KAMWANGI,4,MOH
36.7836,-0.928727,KARATU HEALTH CENTRE,236,THIKA,GATUNDU,3,MOH
36.849113,-0.906258,KARINGA DISP,211,THIKA,KAMWANGI,4,MISS
36.8085,-0.856359,KIARUTARA DISP,,THIKA,KAMWANGI,4,MOH
36.892312,-0.853214,KIGORO DISP,339,THIKA,GATANGA,4,MOH
36.973212,-0.922312,KIHUMBUINI DISP,341,THIKA,GATANGA,4,MOH
36.9858,-0.925561,KIHUMBUINI DISP,4596,THIKA,GATANGA,4,MISS
37.2202,-1.0712,KILIMAMBOGO MISS. HOSPITAL,254,THIKA,MUNICIPALITY,1,MISS
36.763212,-0.771423,KIMAKIA FOREST DISP,3795,THIKA,GATANGA,4,MOH
37.3083,-1.00517,KINYANGI HEALTH CENTRE,380,THIKA,KAKUZI,3,MOH
,,KIRATHAMI DISP,,THIKA,,4,MOH
36.8772,-0.911087,KIRIKO DISP,218,THIKA,KAMWANGI,4,MISS
36.90321,-0.923212,KIRWARA HEALTH CENTRE,383,THIKA,KAMWANGI,3,MOH
37.232252,-0.915586,KITITO DISP,346,THIKA,KAKUZI,4,MISS
37.0107,-0.944557,KIUNYU DISP,347,THIKA,GATANGA,4,MOH
36.961426,-0.969116,MAKWA KOLTING MISSION DISP,2421,THIKA,KAMWANGI,4,MISS
36.953603,-0.987387,MANGU DISPENSARY,241,THIKA,KAMWANGI,3,MISS
37.068919,-1.046838,MARY HELP OF THE SICK  MISSION H,,THIKA,MUNICIPALITY,1,MISS
36.8076,-0.881236,MATAARA DISP,387,THIKA,KAMWANGI,4,MOH
36.895946,-0.97027,MBICHI DISP,2455,THIKA,KAMWANGI,4,MOH
37.082312,-1.012321,MITUMBIRI DISP,2462,THIKA,KAKUZI,4,MOH
36.9686,-1.14266,MUGUTHA HEALTH CENTRE,,THIKA,RUIRU,3,MOH
,,MUIANA DISP,2405,THIKA,,4,MISS
36.9618,-0.928727,MUKARARA DISP,,THIKA,GATANGA,4,MOH
36.96321,-0.902312,MUKURWE DISP,4537,THIKA,GATANGA,4,MOH
37.1134,-1.11553,MUNYU HEALTH CENTRE,259,THIKA,MUNICIPALITY,3,MOH
36.782312,-0.932312,MUNYUINI DISP,4746,THIKA,GATUNDU,4,MOH
36.8085,-0.806607,NDAKAINI DISP,,THIKA,GATANGA,4,MOH
36.8234,-0.929631,NDARUGU DISP,,THIKA,KAMWANGI,4,MOH
,,NDONYERO HEALTH CENTRE,4595,THIKA,,3,MOH
36.785,-0.962196,NDUNDU DISPENSARY,222,THIKA,GATUNDU,4,MOH
36.797039,-0.973651,NDUNDU MISSION HEALTH CENTRE,232,THIKA,GATUNDU,3,MISS
36.901789,-1.009908,NDUNGU HEALTH CENTRE,2422,THIKA,GATUNDU,3,MISS
37.3825,-1.01964,NGELELYA DISP,2460,THIKA,KAKUZI,4,MOH
36.8944,-1.03185,NGENDA HEALTH CENTRE,242,THIKA,GATUNDU,3,MOH
37.2776,-1.04723,NGORIBA HEALTH CENTRE,223,THIKA,MUNICIPALITY,3,MOH
36.9044,-0.919681,NGORONGO HEALTH CENTRE,244,THIKA,KAMWANGI,3,MOH
37.263212,-1.041232,NYS YATTA DISP,2434,THIKA,MUNICIPALITY,4,MOH
36.964865,-1.135135,OAKLANDS HOSPITAL,2406,THIKA,RUIRU,1,MISS
36.9066,-1.11779,RUIRU HEALTH CENTRE,245,THIKA,RUIRU,3,MOH
37.079567,-1.048742,ST LUKE'S HOSPITAL,4752,THIKA,MUNICIPALITY,1,MISS
37.1346,-1.07798,ST. MULUMBA CATHOLIC HOSPITAL,4754,THIKA,MUNICIPALITY,1,MISS
37.0776,-1.03678,THIKA DISTRICT HOSPITAL,256,THIKA,MUNICIPALITY,1,MOH
36.9876,-0.910635,THUITA PCEA DISP,,THIKA,GATANGA,4,MISS
39.595692,-3.82122,AL-SULTAN DISP,513,KILIFI,KALOLENI,4,MISS
39.523701,-3.54541,BAMBA HEALTH CENTRE,559,KILIFI,BAMBA,3,MOH
39.749401,-3.88427,BOMANI DISP,,KILIFI,KIKAMBALA,4,MOH
39.64452,-3.92021,BWAGAMOYO DISP,514,KILIFI,KALOLENI,4,MOH
39.699951,-3.73492,CHASIMBA/MWELE DISP,519,KILIFI,CHONYI,4,MOH
39.805408,-3.42881,DIDA DISP,523,KILIFI,VITENGENI,4,MOH
39.671959,-3.54244,GANZE DISP,525,KILIFI,GANZE,4,MOH
39.585923,-3.814363,GIRIAMA MISSION DISP,528,KILIFI,KALOLENI,4,MISS
39.540619,-3.78647,GOTANI DISP,531,KILIFI,KALOLENI,4,MOH
39.742729,-3.63261,JARIBUNI DISP,532,KILIFI,GANZE,4,MOH
39.686451,-3.83107,JIBANA HEALTH CENTRE,560,KILIFI,KALOLENI,3,MOH
39.761131,-3.82987,JUNJU DISP,534,KILIFI,KIKAMBALA,4,MOH
39.85722,-3.63205,KILIFI DISTRICT HOSPITAL,565,KILIFI,BAHARI,1,MOH
39.579223,-3.729553,KINARANI DISP,3762,KILIFI,KALOLENI,4,MOH
39.676958,-3.782055,KIZINGO H C,3300,KILIFI,CHONYI,3,MOH
39.58707,-3.91277,KOMBENI DISP,540,KILIFI,KALOLENI,4,MOH
39.661819,-3.8669,LENGA DISP,541,KILIFI,KALOLENI,4,MOH
39.49386,-3.85673,MARIAKANI HEALTH CENTRE,570,KILIFI,KALOLENI,3,MOH
39.928551,-3.3904,MATSANGONI DISP,544,KILIFI,BAHARI,4,MOH
39.663441,-3.84524,MGAMBONI DISP,546,KILIFI,KALOLENI,4,MOH
39.738239,-3.91792,MTWAPA DISP,545,KILIFI,KIKAMBALA,4,MOH
39.576759,-3.28851,MURYACHWAKE DISP,547,KILIFI,VITENGENI,4,MOH
39.862282,-3.51353,NGERENYA DISP,548,KILIFI,BAHARI,4,MOH
39.773449,-3.77444,PINGILIKANI DISP,550,KILIFI,CHONYI,4,MOH
39.566319,-3.93892,RABAI HEALTH CENTRE,571,KILIFI,KALOLENI,3,MOH
39.63147,-3.8854,RIBE DISP,551,KILIFI,KALOLENI,4,MOH
39.705671,-3.777286,ST TERESA'S CATHOLIC DISP,3629,KILIFI,CHONYI,4,MISS
39.6334,-3.8166,ST. LUKE'S KALOLENI HOSPITAL,2938,KILIFI,KALOLENI,1,MISS
39.779401,-3.88018,SUN N SAND DISP,538,KILIFI,KIKAMBALA,4,MISS
39.8592,-3.68278,TAKAUNGU DISP,554,KILIFI,KIKAMBALA,4,MOH
39.44978,-3.71439,TSANGATSINI DISP,556,KILIFI,KALOLENI,4,MOH
39.594903,-3.883313,UNION MEDICAL DISP,,KILIFI,KALOLENI,4,MISS
39.809422,-3.81929,VIPINGO HEALTH CENTRE,572,KILIFI,KIKAMBALA,3,MOH
39.8133,-3.80758,VIPINGO SISAL ESTATE DISP,557,KILIFI,KIKAMBALA,4,MISS
39.707989,-3.35909,VITENGENI DISP,563,KILIFI,VITENGENI,4,MOH
,,WEMA CATHOLIC DISP,,KILIFI,,4,MISS
,,WORLD REVIVAL DISP,,KILIFI,,4,MISS
39.434,-3.98003,BOFU DISP,573,KWALE,KINANGO,4,MOH
39.5752,-4.28581,CATHOLIC DISP DIANI-UKUNDA,,KWALE,MSAMBWENI,4,MISS
39.5681,-4.27433,DIANI DISP,574,KWALE,MSAMBWENI,4,MOH
39.3469,-4.41492,ESHU DISP,575,KWALE,MSAMBWENI,4,MOH
39.5344,-4.33936,IBN SINA DISP,3668,KWALE,MSAMBWENI,4,MISS
39.4982,-3.90842,KAFUDINI DISP,3779,KWALE,SAMBURU,4,MOH
39.3981,-4.0449,KIBANDAONGO DISP,576,KWALE,KINANGO,4,MOH
39.31,-4.39594,KIBUYUNI DISP,577,KWALE,KUBO,4,MOH
,,KICHAGA DISP,3781,KWALE,,4,MISS
39.356837,-4.34917,KICHAKA SIMBA MISSION DISP,578,KWALE,KUBO,4,MISS
39.3135,-4.44607,KIKONENI H C,603,KWALE,MSAMBWENI,3,MOH
39.0764,-4.35192,KILIMANGODO DISP,579,KWALE,MSAMBWENI,4,MOH
39.3132,-4.13986,KINANGO SUB-DISTRICT HOSPITAL,609,KWALE,KINANGO,1,MOH
39.2324,-3.86981,KINANGONI DISP,4131,KWALE,SAMBURU,4,MOH
39.456,-4.17514,KWALE SUB-DISTRICT HOSPITAL,610,KWALE,MATUGA,1,MOH
39.3157,-4.35608,LUKORE DISP,580,KWALE,KUBO,4,MOH
39.1206,-4.55366,LUNGA LUNGA DISP,581,KWALE,MSAMBWENI,4,MOH
39.5,-3.95,LUTSANGANI DISP,582,KWALE,SAMBURU,4,MOH
39.0402,-3.72904,MACKINON DISP,583,KWALE,SAMBURU,4,MOH
39.375,-4.44518,MAFISINI DISP,584,KWALE,MSAMBWENI,4,MOH
39.5563,-4.21096,MAGODZONI DISP,4132,KWALE,MATUGA,4,MOH
39.2944,-4.40447,MAJIMOTO DISP,3669,KWALE,MSAMBWENI,4,MOH
39.2762,-4.57561,MAJORENI DISP,585,KWALE,MSAMBWENI,4,MOH
39.2454,-3.98457,MAKAMINI DISP,586,KWALE,SAMBURU,4,MOH
,,MAKWANGANI MISSION DISP,3963,KWALE,,4,MISS
39.2438,-4.45926,MAMBA DISP,,KWALE,MSAMBWENI,4,MOH
39.4334,-3.88865,MANDA DISP,596,KWALE,SAMBURU,4,MOH
39.571,-4.16819,MATUGA DISP,587,KWALE,MATUGA,4,MOH
39.54152,-3.96716,MAZERAS DISP,588,KWALE,SAMBURU,4,MOH
39.495,-4.24406,MAZUMAALUME DISP,3299,KWALE,MATUGA,4,MOH
39.53,-4.29503,MBUANI DISP,589,KWALE,MSAMBWENI,4,MOH
39.3962,-4.42287,MIVUMONI DISP,590,KWALE,MSAMBWENI,4,MISS
39.2675,-4.29071,MKONGANI DISP,591,KWALE,KUBO,4,MOH
39.3968,-4.66227,MKWIRO DISP,2897,KWALE,MSAMBWENI,4,MOH
39.4868,-3.98765,MNYENZENI DISP,592,KWALE,SAMBURU,4,MOH
39.2457,-4.48888,MRIMA DISP,593,KWALE,MSAMBWENI,4,MISS
39.4708,-4.48007,MSAMBWENI DISTRICT HOSPITAL,611,KWALE,MSAMBWENI,1,MOH
39.3411,-4.00308,MTAA DISP,3964,KWALE,KINANGO,4,MOH
,,MTUNWA HEALTH CENTRE,2903,KWALE,,3,MISS
39.5141,-4.34114,MUHAKA DISP,594,KWALE,MSAMBWENI,4,MOH
39.3663,-4.22579,MWALUPHAMBA DISP,595,KWALE,KUBO,4,MOH
39.363895,-4.379162,MWALUVANGA DISP,,KWALE,KUBO,4,MOH
,,MWAMUA HEALTH DISP,2902,KWALE,,4,MISS
39.4527,-4.34027,MWAPALA DISP,3782,KWALE,KUBO,4,MOH
39.167,-4.25718,NDAVAYA DISP,597,KWALE,KINANGO,4,MOH
39.631603,-4.128266,NG'OMBENI DISP,598,KWALE,MATUGA,4,MOH
39.2698,-3.79005,SAMBURU H C,604,KWALE,SAMBURU,3,MOH
39.4179,-4.35774,SHIMBA HILLS H C,605,KWALE,KUBO,3,MOH
39.378825,-4.645082,SHIMONI DISP,599,KWALE,MSAMBWENI,4,MOH
39.2822,-3.62041,SILALONI DISP,,KWALE,SAMBURU,4,MOH
39.1423,-3.75431,TARU HEALTH CENTRE,606,KWALE,SAMBURU,3,MOH
39.5869,-4.24935,TIWI RURAL H T C,613,KWALE,MATUGA,3,MOH
39.576165,-4.287945,UKUNDA CATHOLIC DISP,,KWALE,MSAMBWENI,4,MISS
39.217396,-4.660974,VANGA H C,607,KWALE,MSAMBWENI,3,MOH
39.1633,-4.04133,VIGURUNGANI DISP,600,KWALE,KINANGO,4,MOH
39.2142,-4.48469,VITSANGALAWENI DISP,601,KWALE,MSAMBWENI,4,MOH
39.4883,-4.15284,VYONGWANI DISP,2898,KWALE,MATUGA,4,MOH
39.6026,-4.1736,WAA DISP,602,KWALE,MATUGA,4,MOH
39.3629,-4.65501,WASINI DISP,3783,KWALE,MSAMBWENI,4,MOH
40.68,-2.42,BAHARINI MISSION DISP,2446,LAMU,MPEKETONI,4,MISS
40.795232,-2.057423,BARGONI HEALTH CENTRE,3606,LAMU,HINDI,3,MOH
41.106066,-2.071384,FAZA HEALTH CENTRE,626,LAMU,FAZA,3,MOH
40.810619,-2.17357,HINDI MAGOGONI DISP,,LAMU,HINDI,4,MOH
40.82,-2.18,HINDI PRISON DISP,615,LAMU,HINDI,4,MOH
40.657674,-2.341627,HONGWE CATHOLIC HEALTH CENTRE,616,LAMU,MPEKETONI,3,MISS
41.123971,-2.080138,ICHUNDWA DISP,625,LAMU,KIZINGITINI,4,MOH
41.489472,-1.741314,KIUNGA HEALTH CENTRE,627,LAMU,KIUNGA,3,MOH
41.276085,-2.002129,KIWAYU DISP,618,LAMU,KIZINGITINI,4,MOH
41.1464,-2.07302,KIZINGITINI DISP,617,LAMU,KIZINGITINI,4,MOH
40.716142,-2.368667,LAKE KENYATTA HEALTH CENTRE,2451,LAMU,MPEKETONI,3,MISS
40.906769,-2.27857,LAMU DISTRICT HOSPITAL,631,LAMU,AMU,1,MOH
41.181,-1.746,MANGAI DISP,2508,LAMU,KIUNGA,4,MOH
40.858402,-2.29451,MATONDONI DISP,619,LAMU,AMU,4,MOH
41.299752,-1.896091,MKOKONI DISP,3786,LAMU,KIUNGA,4,MOH
40.6761,-2.29477,MKUNUBI DISP,620,LAMU,MPEKETONI,4,MOH
40.7218,-2.42249,MLANGUMU DISP,,LAMU,MPEKETONI,4,MOH
40.315276,-2.274546,MOA (WEMA) MISSION DISP,2450,LAMU,WITU,4,MISS
40.830624,-2.226905,MOKOWE HEALTH CENTRE,628,LAMU,HINDI,3,MOH
40.6976,-2.38934,MPEKETONI HEALTH CENTRE,629,LAMU,MPEKETONI,3,MOH
40.860674,-2.234325,MUKOWE HOSPITAL,,LAMU,HINDI,1,MOH
40.780399,-2.01823,N.Y.S DISP (BARGONI),614,LAMU,HINDI,4,MOH
41.209608,-2.011428,NDAU DISP,621,LAMU,KIZINGITINI,4,MOH
40.481233,-2.203467,PANDA NGUO DISP,3787,LAMU,WITU,4,MOH
41.011852,-2.119562,PATTE DISP,622,LAMU,FAZA,4,MOH
,,R.D.A.U DISP,,LAMU,,4,MOH
40.949199,-2.277881,SHELLA DISP,623,LAMU,AMU,4,MOH
41.08097,-2.109339,SIYU DISP,624,LAMU,FAZA,4,MOH
40.435958,-2.39067,WITU HEALTH CENTRE,630,LAMU,WITU,3,MOH
39.477797,-3.065975,ADC GALANA RANCH DISP,3301,MALINDI,MALINDI,4,MISS
39.979912,-2.8398,ADU DISP,512,MALINDI,MARAFA,4,MOH
39.791723,-3.247002,AIC MALANGA DISP,4657,MALINDI,MALINDI,4,MISS
39.784611,-3.10371,BARICHO DISP,516,MALINDI,MARAFA,4,MOH
39.633499,-3.122,CHAKAMA DISP,518,MALINDI,MALINDI,4,MOH
39.936409,-3.18239,DAGAMRA DISP,521,MALINDI,MARAFA,4,MOH
40.093725,-2.917646,FUNDISA DISP,2937,MALINDI,MAGARINI,4,MOH
40.116335,-3.197483,GALANA HOSPITAL,564,MALINDI,MALINDI,1,MISS
39.891178,-3.13094,GARASHI DISP,526,MALINDI,MARAFA,4,MOH
40.050652,-3.284649,GEDE DISP,527,MALINDI,MALINDI,4,MOH
40.133381,-3.03614,GONGONI DISP,530,MALINDI,MAGARINI,4,MOH
39.905842,-3.18922,JILORE HEALTH CENTRE,533,MALINDI,MALINDI,3,MOH
39.86591,-3.16443,KAKONENI DISP,535,MALINDI,MALINDI,4,MOH
40.001911,-3.22065,KAKUYUNI DISP,536,MALINDI,MALINDI,4,MOH
39.792298,-3.257113,MALANGA SDA DISPENSARY,,MALINDI,MALINDI,4,MISS
40.1182,-3.2165,MALINDI DISTRICT HOSPITAL,566,MALINDI,MALINDI,1,MOH
40.136879,-3.11815,MAMBRUI DISP,542,MALINDI,MAGARINI,4,MOH
39.959728,-3.02833,MARAFA HEALTH CENTRE (MAGARINI),561,MALINDI,MARAFA,3,MOH
40.144611,-2.863,MARERENI DISP,3765,MALINDI,MAGARINI,4,MOH
40.112049,-3.09027,MARIKEBUNI DISP,543,MALINDI,MAGARINI,4,MOH
40.031232,-3.195264,MERE SDA DISP,,MALINDI,MALINDI,4,MISS
40.037835,-2.702209,MIDZIJINI DISP,3766,MALINDI,MARAFA,4,MISS
40.114903,-3.232732,MUNICIPAL HEALTH CENTRE,4350,MALINDI,MALINDI,3,LA
40.140365,-2.963256,NEEMA MEDICAL DISP,,MALINDI,MAGARINI,4,MISS
40.18,-3.01,NGOMENI DISP,549,MALINDI,MAGARINI,4,MOH
39.822899,-3.02801,SOSONI DISP,553,MALINDI,MARAFA,4,MOH
40.112698,-3.220937,TAWFIQ MUSLIM HOSPITAL,2940,MALINDI,MALINDI,1,MISS
40.114882,-3.216853,TAWHEED MUSLIM DISP,,MALINDI,MALINDI,4,MISS
40.01693,-3.35175,WATAMU SDA DISP,2917,MALINDI,MALINDI,4,MISS
39.663987,-4.041251,ALMS HOUSE DISP,643,MOMBASA,ISLAND,4,LA
,,AMANI MEDICAL DISP,3534,MOMBASA,,4,MISS
39.714984,-4.005339,ANNEXE DISP,4517,MOMBASA,KISAUNI,4,MOH
,,BAHARI DISP,632,MOMBASA,,4,LA
39.707035,-3.973318,BAMBURI DISP,644,MOMBASA,KISAUNI,4,LA
39.61943,-4.016913,CHAANI DISP,645,MOMBASA,CHANGAMWE,4,LA
39.677362,-4.059355,COAST PROVINCIAL GENERAL HOSP.,696,MOMBASA,ISLAND,2,MOH
39.644637,-4.100958,CRESCENT MEDICAL AID DISP,3303,MOMBASA,LIKONI,4,MISS
,,CYNN MED DISP,3836,MOMBASA,,4,MISS
,,DOGA DISP,3538,MOMBASA,,4,MISS
39.665141,-4.056412,ELIZA MEDICAL RENT DISP,4530,MOMBASA,ISLAND,4,MISS
39.658767,-4.065307,GANJONI (CDC) DISP,648,MOMBASA,ISLAND,4,LA
39.680918,-4.064671,HOLY GHOST CATHEDRAL DISP,3307,MOMBASA,ISLAND,4,MISS
,,JADESHI MEMORIAL DISP,4529,MOMBASA,,4,MISS
,,JAFAGOS MEDICAL CENTRE,4525,MOMBASA,,4,MISS
,,JAMIA PLAZA DISP,,MOMBASA,,4,NGO
39.598962,-3.987726,JOMVU KUU HEALTH CENTRE,685,MOMBASA,CHANGAMWE,3,LA
39.596276,-3.990976,JOMVU REFUGEE CAMP,,MOMBASA,CHANGAMWE,4,NGO
39.65,-4.08,KILINDINI PORT DISP,651,MOMBASA,LIKONI,4,MOH
39.692579,-4.030596,KISAUNI DISP,653,MOMBASA,KISAUNI,4,MOH
39.684077,-4.041348,KONGOWEA HEALTH CENTRE,683,MOMBASA,KISAUNI,3,MOH
39.68,-4.039701,KONGOWEA MED DISP,4523,MOMBASA,KISAUNI,4,MISS
39.6,-4.04,KWA JOMVU HEALTH CENTRE,684,MOMBASA,CHANGAMWE,3,LA
39.655484,-4.085214,LIKONI HEALTH CENTRE,687,MOMBASA,LIKONI,3,MOH
39.644641,-4.111836,LIKONI MISSION DISP,655,MOMBASA,LIKONI,4,MISS
,,M.E.W.A  HOSPITAL,4471,MOMBASA,,1,MISS
39.63,-4.0352,MAGONGO HEALTH CENTRE,688,MOMBASA,CHANGAMWE,3,LA
39.66667,-4.031532,MAJENGO DISP,689,MOMBASA,ISLAND,4,LA
39.663509,-4.058393,MAJENGO MCH/FP CLINIC,,MOMBASA,ISLAND,4,NGO
39.655225,-4.03153,MAKUPA HEALTH CENTRE,690,MOMBASA,ISLAND,3,LA
39.660636,-4.045181,MAKUPA MCH/FP CLINIC,,MOMBASA,ISLAND,4,NGO
,,MARY IMMACULATE DISPENSARY,,MOMBASA,,4,MISS
,,MAUNGUJA DISP,659,MOMBASA,,4,LA
,,MIKINDANI DISP,3305,MOMBASA,,4,MOH
39.648458,-4.029325,MIKINDANI MISSION DISP,660,MOMBASA,CHANGAMWE,4,MISS
39.58529,-4.010761,MIRITINI DISP,4508,MOMBASA,CHANGAMWE,4,LA
39.674068,-4.063657,MKOMANI HARAMBEE DISP,661,MOMBASA,ISLAND,4,NGO
,,MLALEO MEDICAL DISP,4518,MOMBASA,,4,MISS
39.651523,-4.045337,MOW SHIMANZI DISP,656,MOMBASA,ISLAND,4,LA
39.641934,-4.068683,MTONGWE DISP,3959,MOMBASA,LIKONI,4,MISS
39.639063,-4.081243,MTONGWE HEALTH CENTRE,692,MOMBASA,LIKONI,3,MOH
,,MTOPANGA DISP,4526,MOMBASA,,4,MISS
,,MTUPANGA (ELIZA) DISP,3077,MOMBASA,,4,MISS
39.67,-4.05,MVITA DISP (MOMBASA),638,MOMBASA,ISLAND,4,LA
39.685962,-3.960939,MWAKIRUGE DISP,663,MOMBASA,KISAUNI,4,LA
39.672694,-4.064651,MWEMBE TAYARI SUB HEALTH CENTRE,664,MOMBASA,ISLAND,3,LA
39.67,-4.06,NGOMEN DISP,2370,MOMBASA,ISLAND,4,MOH
39.674455,-4.05783,OLD TOWN KADER BHOY DISP,667,MOMBASA,ISLAND,4,LA
39.602867,-4.039267,PORT REITZ DISTRICT HOSPITAL,700,MOMBASA,CHANGAMWE,1,MOH
,,ROUND TABLE DISP,3539,MOMBASA,,4,MISS
,,SEIFFEE FOUND DISP,4357,MOMBASA,,4,MISS
39.743165,-3.976707,SHANZU HADIEK COLLEGE DISP,672,MOMBASA,KISAUNI,4,LA
39.637669,-4.11276,SHIKA ADABU DISP,674,MOMBASA,LIKONI,4,MOH
39.742418,-3.956292,SHIMO LA TEWA DISP,675,MOMBASA,KISAUNI,4,MOH
39.667547,-4.071958,STATE HOUSE DISP,676,MOMBASA,ISLAND,4,MOH
39.65792,-4.117456,STELLA MARIE DISP,677,MOMBASA,LIKONI,4,MISS
39.657845,-4.094899,TIMBWANI CONSOLATA SISTERS DISPE,3956,MOMBASA,LIKONI,4,MISS
39.661421,-4.029273,TUDOR HEALTH CENTRE,678,MOMBASA,ISLAND,3,MOH
39.68143,-4.068035,UKUMBUSHO CPK HOSP,702,MOMBASA,ISLAND,1,MISS
39.72,-3.97,UTANGE DISP,679,MOMBASA,KISAUNI,4,LA
39.718534,-3.979314,UTANGE REFUGEE CAMP DISP,,MOMBASA,KISAUNI,4,NGO
39.6,-4.06546,WATAMU DISP,558,MOMBASA,LIKONI,4,MOH
,,ZIWA-LA-NGOMBE DISP,3922,MOMBASA,,4,MOH
38.654357,-3.67546,BUGUTA DISP,,TAITA TAVETA,VOI,4,MOH
38.315701,-3.50013,BURA DISP,704,TAITA TAVETA,MWATATE,4,MOH
38.289771,-3.504139,BURA MISSION DISP,705,TAITA TAVETA,MWATATE,4,MISS
37.736031,-3.29582,CHALA DISP,706,TAITA TAVETA,TAVETA,4,MOH
37.694258,-3.438287,ELDORO MISSION DISP,707,TAITA TAVETA,TAVETA,4,MISS
38.446301,-3.28928,GHAZI DISP,708,TAITA TAVETA,TAUSA,4,MOH
38.60778,-3.51759,KAJIRE DISP,2883,TAITA TAVETA,VOI,4,MOH
38.3438,-3.3842,KASIGAU HEALTH CENTRE,732,TAITA TAVETA,WUNDANYI,3,MOH
37.69194,-3.46046,KIMORIGO DISP,710,TAITA TAVETA,TAVETA,4,MOH
38.323799,-3.2783,KISHUSHE DISP,711,TAITA TAVETA,WUNDANYI,4,MOH
37.613098,-3.44028,KITOBO DISP,2884,TAITA TAVETA,TAVETA,4,MOH
37.63136,-3.455871,KITOBO DISP,,TAITA TAVETA,TAVETA,4,MISS
38.681469,-3.81333,MAKWASINJI DISP,4655,TAITA TAVETA,VOI,4,MOH
38.477242,-3.089864,MANYANI DISP,3313,TAITA TAVETA,TSAVO N. PARK,4,MOH
38.659203,-3.674076,MARUNGU DISP,,TAITA TAVETA,VOI,4,MISS
37.7561,-3.47483,MATA DISP,714,TAITA TAVETA,TAVETA,4,MOH
38.383011,-3.3793,MBALE HEALTH CENTRE,733,TAITA TAVETA,WUNDANYI,3,MOH
38.313862,-3.40141,MGANGE DISP,715,TAITA TAVETA,WUNDANYI,4,MOH
38.32,-3.39,MGANGE DISP,,TAITA TAVETA,WUNDANYI,4,MISS
38.2421,-3.4314,MNENGWA  DISP,4008,TAITA TAVETA,MWATATE,4,MOH
38.56205,-3.39091,MOI VOI DISTRICT HOSPITAL,739,TAITA TAVETA,VOI,1,MOH
38.37886,-3.45746,MPINZINYI HEALTH CENTRE,734,TAITA TAVETA,MWATATE,3,MOH
38.290909,-3.43486,MRUGUA DISP,717,TAITA TAVETA,MWATATE,4,MOH
38.408401,-3.4139,MSAU DISP,718,TAITA TAVETA,TAUSA,4,MOH
38.136189,-3.40801,MWAKITAU DISP,719,TAITA TAVETA,MWATATE,4,MOH
38.431301,-3.35282,MWAMBIRWA DISP,720,TAITA TAVETA,MWAMBIRWA,4,MOH
38.285809,-3.40195,MWANDA DISP,721,TAITA TAVETA,WUNDANYI,4,MOH
38.368629,-3.50728,MWATATE HEALTH CENTRE,735,TAITA TAVETA,MWATATE,3,MOH
38.477959,-3.297,NDOME DISP,723,TAITA TAVETA,TAUSA,4,MOH
38.551224,-3.394956,NDOVU DISP,727,TAITA TAVETA,VOI,4,MOH
37.725128,-3.19,NJUKINI DISP,724,TAITA TAVETA,TAVETA,4,MOH
38.380901,-3.33836,NYACHE HEALTH CENTRE,736,TAITA TAVETA,WUNDANYI,3,MOH
38.3335,-3.43297,SAGAIGU DISP,2881,TAITA TAVETA,MWATATE,4,MOH
38.582191,-3.49354,SAGALA HEALTH CENTRE,737,TAITA TAVETA,VOI,3,MOH
38.46846,-3.43161,SHELEMBA DISP,725,TAITA TAVETA,TAUSA,4,MOH
38.50169,-3.34175,TAUSA DISP,3923,TAITA TAVETA,TAUSA,4,MOH
37.67725,-3.3987,TAVETA DISTRICT HOSPITAL,740,TAITA TAVETA,TAVETA,1,MOH
,,VIGOMBONYI DISP,,TAITA TAVETA,,4,MISS
38.639858,-3.81356,WERUGHA DISP,729,TAITA TAVETA,VOI,4,MOH
38.342159,-3.40885,WESU DISTRICT HOSPITAL,741,TAITA TAVETA,WUNDANYI,1,MOH
38.359781,-3.41828,WUNDANYI HEALTH CENTRE,738,TAITA TAVETA,WUNDANYI,3,MOH
38.354562,-3.469733,WUSI WUKESIA DISP,730,TAITA TAVETA,MWATATE,4,MISS
39.014671,-0.151968,ASAKO DISP,1188,TANA RIVER,BANGALE,4,MOH
39.424629,-2.05182,ASSA DISP,742,TANA RIVER,GARSEN,4,MOH
39.016659,-0.72541,BANGALE DISP,743,TANA RIVER,BANGALE,4,MOH
39.91806,-1.084244,BURA CATHOLIC DISP(TANA RIVER),744,TANA RIVER,BURA,4,MISS
39.838829,-1.18281,BURA HEALTH CENTRE,791,TANA RIVER,BURA,3,MOH
39.82103,-1.18688,BURA NYS DISP,745,TANA RIVER,BURA,4,MOH
40.02169,-1.43728,CHEWANI DISP,748,TANA RIVER,GALORE,4,MOH
39.951618,-1.158,CHEWELE DISP,749,TANA RIVER,BURA,4,MOH
39.164769,-1.191098,CHIFIRI DISP,,TANA RIVER,GALORE,4,MOH
39.45,-1.57,DABA DISP,750,TANA RIVER,GALORE,4,MISS
,,DARASA DISP,,TANA RIVER,,4,MISS
39.11,-2.97,ELDORO DISP(TANA RIVER),751,TANA RIVER,TSAVO E  N .PARK,4,MISS
40.02795,-1.499007,EMMAUS DISP,752,TANA RIVER,GALORE,4,MISS
40.10762,-2.27091,GARSEN HEALTH CENTRE,792,TANA RIVER,GARSEN,3,MOH
40.030251,-1.4988,HOLA DISTRICT HOSPITAL,795,TANA RIVER,GALORE,1,MOH
40.03208,-1.512465,HOLA MISSION DISP,2454,TANA RIVER,GALORE,4,MISS
39.918406,-1.084244,HURUMA DISP,753,TANA RIVER,BURA,4,MISS
40.122978,-2.29391,IDSOWE DISP,754,TANA RIVER,GARSEN,4,MOH
40.453161,-2.473381,KAU DISP,755,TANA RIVER,KIPINI,4,MOH
39.9648,-1.47434,KIARUKUNGU DISP,756,TANA RIVER,GALORE,4,MISS
40.216583,-2.422858,KIPAO DISP,,TANA RIVER,GARSEN,4,MOH
,,KIPE DISPESARY,757,TANA RIVER,,4,MOH
40.541761,-2.5308,KIPINI HEALTH CENTRE,793,TANA RIVER,KIPINI,3,MOH
39.359733,-0.19679,KORATI DISP,2506,TANA RIVER,BANGALE,4,MOH
39.607311,-0.47267,MADOGO HEALTH CENTRE,794,TANA RIVER,MADOGO,3,MOH
40.1135,-1.903,MAJENGO DISP,758,TANA RIVER,WENJE,4,MOH
40.000669,-1.3372,MAKERE DISP,760,TANA RIVER,GALORE,4,MOH
40.009009,-1.331081,MAKERE DISP,3817,TANA RIVER,GALORE,4,MISS
40.07,-2.12,MAREMBO DISP,,TANA RIVER,GARSEN,4,MOH
,,MARIAMU DISP,762,TANA RIVER,,4,MISS
39.92,-1.1,MARYKNOLL DISP,763,TANA RIVER,BURA,4,MISS
,,MAS DISP,764,TANA RIVER,,4,MOH
40.00832,-1.50592,MAUMAU SEC SUB-HEALTH CENTRE,761,TANA RIVER,GALORE,3,MOH
40.135109,-2.18453,MAZIWA DISP,797,TANA RIVER,GARSEN,4,MOH
39.066174,-1.134399,MBALAMBALA DISP,765,TANA RIVER,GALORE,4,MOH
,,MGENO DISP,766,TANA RIVER,,4,MOH
,,MHEZUNI DISP,767,TANA RIVER,,4,MOH
,,MINIJILA DISP,4392,TANA RIVER,,4,MOH
40.149052,-1.97791,MNAZINI DISP,768,TANA RIVER,GARSEN,4,MOH
39.632476,-0.474663,MORORO HEALTH CENTRE,3818,TANA RIVER,MADOGO,3,MOH
39.429224,-0.296412,MULANJO DISP,769,TANA RIVER,MADOGO,4,MOH
39.851012,-0.85945,NANIGHI DISP,771,TANA RIVER,BURA,4,MOH
39.888416,-0.98261,NANIGHI NYS DISP,770,TANA RIVER,BURA,4,MOH
40.201099,-2.41221,NGAO SUB-DISTRICT HOSPITAL,796,TANA RIVER,GARSEN,1,MOH
40.193821,-2.46857,ODA DISP,772,TANA RIVER,GARSEN,4,MOH
40.42429,-2.509831,OZI DISP,773,TANA RIVER,KIPINI,4,MOH
40.068272,-1.6107,PUMWANI DISP,775,TANA RIVER,WENJE,4,MOH
,,REHEMA DISP,776,TANA RIVER,,4,MISS
,,SAMBO DISP,2507,TANA RIVER,,4,MOH
40.297727,-2.579019,SEMIKARO DISP,777,TANA RIVER,KIPINI,4,MOH
,,SHAKABABU DISP,4393,TANA RIVER,,4,MOH
,,ST. FRANCIS DISP,779,TANA RIVER,,4,MISS
40.132089,-2.581755,TARASA DISP,3609,TANA RIVER,GARSEN,4,MISS
,,TAVERA CATHOLIC DISP,782,TANA RIVER,,4,MISS
39.245279,-1.722188,TITILA DISP,783,TANA RIVER,GALORE,4,MISS
39.9946,-1.41398,UMOJA DISP,784,TANA RIVER,GALORE,4,MISS
39.059394,-1.691848,WALDENA AIC DISP,786,TANA RIVER,GALORE,4,MISS
39.02536,-1.61078,WALDENA DISP,787,TANA RIVER,GALORE,4,MOH
39.583912,-1.53075,WAYU DISP,788,TANA RIVER,GALORE,4,MOH
40.164164,-2.229695,WEMA MISSION DISP,789,TANA RIVER,GARSEN,4,MISS
40.098,-1.786,WENJE CATHOLIC DISP,3608,TANA RIVER,WENJE,4,MISS
40.109058,-1.78983,WENJE DISP,790,TANA RIVER,WENJE,4,MOH
37.7684,0.006292,CHAARIA MISSION HOSP,3043,CENTRAL MERU,ABOTHUGUCHI EAST,1,MISS
37.651071,0.049779,CIERA CATHOLIC DISP,3589,CENTRAL MERU,MIRIGA MIERU WEST,4,MISS
37.6622,-0.068017,CONSOLATA NKUBU MISS. HOSPITAL,1182,CENTRAL MERU,NKUENE,1,MISS
37.4081,0.106337,EX-LEWA DISP,3215,CENTRAL MERU,TIMAU,4,MOH
37.7684,-0.007638,GAITU PCEA DISP,2519,CENTRAL MERU,ABOTHUGUCHI EAST,4,MISS
37.6595,0.044284,GAKOROMONE DISP,2382,CENTRAL MERU,MIRIGA MIERU WEST,4,MOH
37.6158,-0.088055,GANGARA PCEA DISP,2521,CENTRAL MERU,ABOGETA,4,MISS
37.6506,-0.078557,GATIA PCEA DISP,396,CENTRAL MERU,NKUENE,4,MISS
37.6417,-0.000673,GATIMBI DISP,1077,CENTRAL MERU,ABOTHUGUCHI CENTRAL,4,MOH
37.7171,-0.153908,GATUNTUNE PCEA DISP,2523,CENTRAL MERU,IGOJI,4,MISS
37.715,-0.048,GATURI PCEA DISP,1079,CENTRAL MERU,ABOTHUGUCHI EAST,4,MISS
37.7684,0.03352,GIAKI DISP,1081,CENTRAL MERU,MIRIGA MIERU EAST,4,MOH
37.6215,-0.005739,GITHONGO SUB DISTRICT HOSPITAL,1167,CENTRAL MERU,ABOTHUGUCHI WEST,1,MOH
37.612,0.06518,GITORO (CONSOLATA) DISP,3083,CENTRAL MERU,FOREST,4,MISS
,,GITORO (TENRI) DISP (JICA),3550,CENTRAL MERU,,4,NGO
37.6132,-0.115971,IGADENE MISSION DISP,2654,CENTRAL MERU,ABOGETA,4,MISS
37.6652,-0.193799,IGOJI MISSION HOSPITAL,1184,CENTRAL MERU,IGOJI,1,MISS
37.68,-0.2,IRUMA CATHOLIC DISP,2396,CENTRAL MERU,IGOJI,4,MISS
37.5746,-0.079823,ITHIMBARI DISP,2525,CENTRAL MERU,ABOGETA,4,MOH
37.65,0.06,KAMBAKIA CHRISTIAN CENTRE DISP,3553,CENTRAL MERU,MIRIGA MIERU WEST,4,NGO
37.6702,-0.120981,KANYAKINE HEALTH CENTRE,1098,CENTRAL MERU,ABOGETA,3,MOH
37.7038,-0.032333,KAONGO DISP,1099,CENTRAL MERU,ABOTHUGUCHI EAST,4,MOH
37.6284,-0.203297,KARIA PCEA DISP,1101,CENTRAL MERU,IGOJI,4,MISS
37.5879,-0.054495,KATHERA PCEA DISP,1105,CENTRAL MERU,NKUENE,4,MISS
37.6873,-0.155807,KATHIGU PCEA DISP,1106,CENTRAL MERU,IGOJI,4,MISS
37.7025,0.069612,KATHITHI DISP,1107,CENTRAL MERU,MIRIGA MIERU EAST,4,MOH
37.52,0.1,KIBIRICHIA DISP,,CENTRAL MERU,ABOTHUGUCHI WEST,4,MISS
37.5037,0.125967,KIBIRICHIA HEALTH CENTRE,1112,CENTRAL MERU,ABOTHUGUCHI WEST,3,MOH
37.8887,-0.001939,KIBURINE DISP,3441,CENTRAL MERU,MIRIGA MIERU EAST,4,MOH
37.6126,-0.176703,KINORO DISP,3217,CENTRAL MERU,IGOJI,4,MOH
37.5841,-0.124147,KIONYO DISP,1122,CENTRAL MERU,ABOGETA,4,MOH
37.6822,-0.094387,KIRONGINE PCEA DISP,1124,CENTRAL MERU,ABOGETA,4,MISS
37.5638,0.130399,KIRUA COTTAGE HOSPITAL,2399,CENTRAL MERU,BUURI,1,MISS
37.5607,0.143063,KIRUA DISP,1117,CENTRAL MERU,BUURI,4,MOH
37.740945,-0.144378,KITHATU CATHOLIC DISP,3555,CENTRAL MERU,ABOGETA,4,MISS
37.5113,0.112669,MACHAKA CATHOLIC DISP,2894,CENTRAL MERU,ABOTHUGUCHI WEST,4,MISS
37.8216,-0.079823,MAKANDUNE PCEA DISP,1127,CENTRAL MERU,ABOTHUGUCHI EAST,4,MISS
37.6291,0.073411,MARIE STOPES DISP,3671,CENTRAL MERU,FOREST,4,NGO
37.6641,0.060928,MERU DISTRICT HOSPITAL,1181,CENTRAL MERU,MIRIGA MIERU WEST,1,MOH
37.62112,0.225676,MINUGU DISP,1138,CENTRAL MERU,BUURI,4,MISS
37.779276,-0.101802,MITUNGUU DISP,3790,CENTRAL MERU,NKUENE,4,MISS
37.6006,-0.072225,MKUMBUNE SUB DISTRICT HOSPITAL,1137,CENTRAL MERU,NKUENE,3,MOH
37.6987,-0.060827,MUJWA CATHOLIC DISP,1142,CENTRAL MERU,ABOTHUGUCHI EAST,4,MISS
37.7095,-0.160873,MWOROGA MISSION DISP,1150,CENTRAL MERU,IGOJI,4,MISS
37.5657,0.091141,NAARI DISP,1151,CENTRAL MERU,BUURI,4,MOH
37.392321,0.202321,NGARENDARE DISP,2743,CENTRAL MERU,TIMAU,4,MISS
37.6911,0.038585,NKABUNE MISSION DISP,1154,CENTRAL MERU,MIRIGA MIERU EAST,4,MISS
37.702131,-0.132542,NKACII DISP,2745,CENTRAL MERU,ABOGETA,4,MOH
37.592321,-0.041232,NKANDO DISP,4453,CENTRAL MERU,NKUENE,4,MOH
37.663113,-0.062288,NKUBU DISP,3718,CENTRAL MERU,NKUENE,4,MOH
37.585537,-0.177278,NKUNJUMO CATHOLIC DISP,2397,CENTRAL MERU,IGOJI,4,MISS
37.1877,-0.00004,ONTOLILI DISP,1157,CENTRAL MERU,FOREST,4,MOH
37.6227,0.003759,RIIJI MISSION DISP,3019,CENTRAL MERU,ABOTHUGUCHI WEST,4,MISS
37.6481,0.174723,RUIRI CATHOLIC DISP,1158,CENTRAL MERU,BUURI,4,MISS
37.6436,0.162059,RUIRI RHDC,1186,CENTRAL MERU,BUURI,3,MOH
37.2428,0.095573,TIMAU CATHOLIC DISP,2784,CENTRAL MERU,TIMAU,4,MISS
37.265,0.110137,TIMAU HEALTH CENTRE,1177,CENTRAL MERU,TIMAU,3,MOH
37.641232,0.052321,TUNTU DISP (MERU GK PRISON DISP),3432,CENTRAL MERU,MIRIGA MIERU WEST,4,MOH
37.5638,-0.037399,URUKU GK PRISON DISP,1163,CENTRAL MERU,NKUENE,4,MOH
37.6088,-0.030434,URUKU H C,1162,CENTRAL MERU,NKUENE,3,MOH
37.6557,-0.130479,YURURU DISP,3445,CENTRAL MERU,ABOGETA,4,MISS
37.5968,-0.417376,CONSOLATA HOSPITAL KYENI,4261,EMBU,KYENI,1,MISS
37.451526,-0.522311,EMBU CHILDREN CLINIC,,EMBU,CENTRAL,4,MISS
37.453604,-0.522973,EMBU PGH,840,EMBU,CENTRAL,2,MOH
37.55,-0.47,ENA DISP,799,EMBU,RUNYENJES,4,MOH
37.5076,-0.385563,GAIKAMA DISP,4319,EMBU,RUNYENJES,4,MISS
37.572321,-0.381235,GATUMBI DISP,802,EMBU,KYENI,4,MOH
37.471234,-0.482321,GATUNDURI DISP,2783,EMBU,CENTRAL,4,MOH
37.4744,-0.548287,GERTRUDES DISP,4340,EMBU,CENTRAL,4,MISS
37.4763,-0.555864,KAGUMOINI DISP,3546,EMBU,CENTRAL,4,MISS
37.4647,-0.430926,KAIRURI DISP,807,EMBU,MANYATTA,4,MOH
37.4649,-0.509833,KANGARU DISP,809,EMBU,CENTRAL,4,MOH
37.5275,-0.379137,KANJA DISP,811,EMBU,RUNYENJES,4,MOH
37.4615,-0.387075,KARAU H C,814,EMBU,MANYATTA,3,MOH
37.66,-0.46,KARURUMO RHTC,844,EMBU,KYENI,3,MOH
37.4451,-0.478747,KATHANGARI DISP,815,EMBU,MANYATTA,4,MOH
37.45,-0.41,KATHANGARIRI DISP,,EMBU,MANYATTA,4,MOH
37.61,-0.42,KATHANJURI DISP,816,EMBU,KYENI,4,MOH
37.5349,-0.444724,KEVOTE DISP,817,EMBU,NEMBURE,4,MISS
37.5016,-0.397093,KIANJOKOMA HEALTH CENTRE,837,EMBU,RUNYENJES,3,MOH
37.4352,-0.444346,KIBUGU HEALTH CENTRE,838,EMBU,MANYATTA,3,MOH
37.64,-0.42085,KIGUMO DISP,819,EMBU,KYENI,4,MISS
37.4732,-0.398038,KIRIARI CPK DISP,2754,EMBU,MANYATTA,4,MISS
37.5585,-0.510879,KITHEGI DISP,804,EMBU,NEMBURE,4,MOH
37.5192,-0.507477,KITHIMU DISP,805,EMBU,NEMBURE,4,MOH
37.4778,-0.358109,KITHUNGURIRI DISP,2443,EMBU,MANYATTA,4,MOH
37.5228,-0.452285,MAKENGI DISP,823,EMBU,NEMBURE,4,MOH
37.4782,-0.563803,MOTHER NAZZALLERO MISSION DISP,,EMBU,CENTRAL,4,MISS
37.5869,-0.396106,MUFU DISP,826,EMBU,KYENI,4,MOH
37.67,-0.49,NDUMARI DISP,,EMBU,RUNYENJES,4,MISS
37.508,-0.471186,NEMBURE DISP,827,EMBU,NEMBURE,4,MOH
37.44,-0.41,NGUVIU DISP,829,EMBU,MANYATTA,4,MISS
37.5764,-0.46765,NTHAGAIYA DISP,2436,EMBU,RUNYENJES,4,MISS
37.5698,-0.424635,RUNYENJES SUB-DISTRICT HOSPITAL,842,EMBU,RUNYENJES,1,MOH
37.574118,0.335795,ACK DISP,,ISIOLO,CENTRAL,4,MISS
37.58654,0.3623,AIC CHRISTIAN COMMUNITY SERVICES,,ISIOLO,CENTRAL,4,MISS
37.585072,0.354493,AL-FALLAH ISLAM DISP,845,ISIOLO,CENTRAL,4,MISS
37.571032,0.330212,ANTI POACHING UNIT,846,ISIOLO,CENTRAL,4,MOH
38.332323,0.912321,BILIKO DISP,4302,ISIOLO,MERTI,4,MOH
38.462321,1.010123,BUSSELA DISP - BULESA,848,ISIOLO,MERTI,4,MOH
39.180705,1.472029,DADACHASA DISP,4303,ISIOLO,MERTI,4,MOH
38.517536,0.526912,ELDERA DISP,849,ISIOLO,GARBA TULLA,4,MOH
38.572132,0.832321,GAFARSA DISP,852,ISIOLO,GARBA TULLA,4,MOH
38.517536,0.526912,GARBATULLA DEV OFFICE DISP,4304,ISIOLO,GARBA TULLA,4,MISS
38.731175,0.979586,IRESA-BORU DISP,,ISIOLO,SERICHO,4,MOH
37.58137,0.3426,ISIOLO CATHOLIC DISP,856,ISIOLO,CENTRAL,4,MISS
37.5812,0.3751,ISIOLO DISTRICT HOSPITAL,873,ISIOLO,CENTRAL,1,MOH
37.7107,0.650937,ISIOLO SAMBURU COMPLEX DISP,857,ISIOLO,CENTRAL,4,MOH
37.574054,0.33842,KAMBI GARBA DISP,,ISIOLO,CENTRAL,4,MISS
38.1796,0.372175,KINNA H C,858,ISIOLO,KINNA,3,MOH
37.253212,0.563212,KIPSING DISP,2353,ISIOLO,OLDONYIRO,4,MOH
38.7662,1.19208,KORBESA DISP,859,ISIOLO,MERTI,4,MOH
38.176,0.580342,KULA MAWE DISP,860,ISIOLO,KINNA,4,MOH
37.2599,0.625596,LONGOPITO DISP,861,ISIOLO,OLDONYIRO,4,MOH
38.5217,0.859105,MALKA DAKA DISP,862,ISIOLO,GARBA TULLA,4,MOH
38.6332,1.10543,MERTI CATHOLIC MISSION DISP,2960,ISIOLO,MERTI,4,MISS
38.6421,1.06354,MERTI HEALTH CENTRE,872,ISIOLO,MERTI,3,MOH
37.6419,0.582152,NGARE MARA CATHOLIC DISP,3580,ISIOLO,CENTRAL,4,MISS
36.9974,0.683521,OLDONYIRO CATHOLIC MISSION DISP,4305,ISIOLO,OLDONYIRO,4,MISS
36.9938,0.649128,OLDONYIRO DISP,864,ISIOLO,OLDONYIRO,4,MOH
37.573016,0.333445,PEPO LA TUMAINI DISP,,ISIOLO,CENTRAL,4,NGO
39.1217,1.10357,SERICHO DISP,870,ISIOLO,SERICHO,4,MOH
,,NDIUNI DISP,,KITUI,MATINYANI,4,MOH
,,CHULUNI DISP,,KITUI,CHULUNI,4,MISS
,,ENDAU DISP,,KITUI,MWITIKA,4,MOH
,,IIANI CATHOLIC DISP,,KITUI,MUTONGONI,4,MISS
38.0678,-1.70245,IKANGA HEALTH CENTRE,876,KITUI,MUTOMO,3,MISS
38.1845,-2.07467,IKUTHA HEALTH CENTRE,918,KITUI,IKUTHA,3,MOH
37.9377,-1.90411,ILENGI DISP,877,KITUI,IKUTHA,4,MOH
37.8065,-1.59297,ILIKA DISP,3096,KITUI,YATTA,4,MOH
38.15,-1.43073,INYUU DISP,878,KITUI,CHULUNI,4,MOH
,,KAKENI DISP,,KITUI,MUTONGONI,4,MOH
38.2979,-1.30871,KALIKU DISP,3094,KITUI,MUTITU,4,MOH
37.9455,-1.33962,KALIMANI DISP,3946,KITUI,KABATI,4,MOH
38.1033,-1.15647,KAMANDIU DISP,3775,KITUI,CENTRAL,4,MOH
37.901,-1.7641,KANYANGI DISP,879,KITUI,YATTA,4,MOH
38.3657,-1.99356,KANZIKO DISP,880,KITUI,IKUTHA,4,MOH
38.2701,-2.14356,KASALA DISP,881,KITUI,IKUTHA,4,MOH
38.0455,-1.2887,KASYALA DISP,6160,KITUI,CENTRAL,4,MOH
37.963212,-2.052321,KATILINI DISP,3777,KITUI,IKUTHA,4,MOH
37.9566,-1.52074,KATULANI HEALTH CENTRE,919,KITUI,CENTRAL,3,MOH
37.812532,-1.152321,KATUTU DISP,4702,KITUI,KABATI,4,MOH
38.3268,-1.83467,KATYETHOKA DISP,883,KITUI,MUTOMO,4,MOH
38.0066,-1.27073,KAUMA DISP,3084,KITUI,KABATI,4,MOH
38.3145,-1.52539,KAUMU DISP,885,KITUI,MWITIKA,4,MOH
37.9032,-1.23961,KAUWI HEALTH CENTRE,920,KITUI,KABATI,3,MOH
37.922276,-1.674609,KAVISUNI DISP,,KITUI,CENTRAL,4,MISS
,,KAVUTA DISP,,KITUI,CENTRAL,4,MOH
38.0305,-1.56242,KISASI HEALTH CENTRE,411,KITUI,CHULUNI,3,MOH
38.2212,-1.71245,KISAYANI DISP,3087,KITUI,MUTOMO,4,MOH
37.8088,-1.22183,KISEVENI DISP,3095,KITUI,KABATI,4,MOH
38.0163,-1.3666,KITUI DISTRICT HOSPITAL,930,KITUI,CENTRAL,1,MOH
37.8262,-1.37858,KWA- VONZA DISP,4139,KITUI,YATTA,4,MOH
37.8343,-1.31184,KWA-MUTONGA DISP,889,KITUI,KABATI,4,MOH
38.0205,-1.3835,KYANIKA DISP,4137,KITUI,CHULUNI,4,MISS
38.1233,-1.80088,KYATUNE DISP,890,KITUI,MUTOMO,4,MOH
,,MALALANI DISP,,KITUI,MWITIKA,4,MOH
38.28,-1.62,MASAANI DISP,4141,KITUI,MUTOMO,4,MISS
37.9933,-1.2485,MATINYANI DISP,892,KITUI,KABATI,4,MOH
38.12,-1.60853,MBITINI DISP,893,KITUI,CHULUNI,4,MOH
38.1134,-1.26299,MIAMBANI HEALTH CENTRE,922,KITUI,CENTRAL,3,MOH
38.032332,-1.332321,MISEWANI DISP,3912,KITUI,CENTRAL,4,MOH
38.0011,-1.44573,MULANGO DISP,896,KITUI,CENTRAL,4,MISS
,,MULELA DISP,897,KITUI,,4,MISS
37.9499,-1.36099,MULUTU DISP,,KITUI,CENTRAL,4,MISS
38.4201,-1.78689,MUTHA DISP,899,KITUI,MUTOMO,4,MOH
37.9969,-1.17637,MUTHALE MISS HOSPITAL,3092,KITUI,KABATI,1,MISS
38.2011,-1.23648,MUTITO HEALTH CENTRE,924,KITUI,MUTITU,3,MOH
38.2034,-1.24426,MUTITO MISSION DISP,901,KITUI,MUTITU,4,MISS
38.2011,-1.85134,MUTOMO DISP,4140,KITUI,MUTOMO,4,MOH
38.1961,-1.85566,MUTOMO MISS HOSPITAL,902,KITUI,MUTOMO,1,MISS
38.125592,-1.306338,MUTULU DISP,,KITUI,CENTRAL,4,MISS
38.0194,-1.31515,MUTUNE DISP,903,KITUI,CENTRAL,4,MISS
38.309,-1.47205,MWITIKA DISP,904,KITUI,MWITIKA,4,MOH
,,NGILUNI DISP,,KITUI,CENTRAL,4,MOH
,,ORMA DISP,910,KITUI,,4,MISS
,,SYATHANI DISP,,KITUI,MUTONGONI,4,MOH
37.8899,-1.43628,TIVA DISP,912,KITUI,CENTRAL,4,MOH
,,USIANI DISP,,KITUI,MUTONGONI,4,MOH
38.329,-1.66579,VOO DISP,915,KITUI,MUTOMO,4,MOH
38.0683,-1.43462,YANZUU DISP,3778,KITUI,CHULUNI,4,MOH
37.8399,-1.46519,YATTA HEALTH CENTRE,929,KITUI,YATTA,3,MOH
38.2434,-1.46416,ZOMBE  DISP,3099,KITUI,MUTITU,4,MISS
37.26928,-1.51643,BISHOP U. KIOKO CATHOLIC HOSPITA,,MACHAKOS,CENTRAL,1,MISS
37.3367,-0.930548,COMBONI DISP,,MACHAKOS,NDITHINI,4,MISS
,,EKALAKALA DISP,,MACHAKOS,MASINGA,4,MOH
37.359084,-1.298303,FRANCISCAN CONVENT HOSPITAL,3890,MACHAKOS,KANGUNDO,1,MISS
,,GRACE BAPTIST DISP,938,MACHAKOS,,4,MISS
37.07,-1.53,IKALASA MISS. DISP,2872,MACHAKOS,MAVOKO,4,MISS
37.6629,-1.27874,IKOMBE DISP,1776,MACHAKOS,YATTA,4,MOH
37.3573,-1.44712,ITHEANI DISP,939,MACHAKOS,KATHIANI,4,MOH
37.532362,-1.071242,ITUNDUIMUNI DISP,971,MACHAKOS,MASINGA,4,MOH
37.3638,-1.50667,KAANI DISP,940,MACHAKOS,KATHIANI,4,MOH
37.4056,-1.2286,KABAA MISSION DISP,941,MACHAKOS,MWALA,4,MISS
37.3853,-1.3012,KAKUYUNI DISP,943,MACHAKOS,KANGUNDO,4,MOH
37.346832,-1.362005,KAKUYUNI MISS. DISP,,MACHAKOS,KANGUNDO,4,MISS
37.652325,-1.582363,KALALA DISP,4348,MACHAKOS,YATHUI,4,MOH
37.362323,-1.602323,KALAMA DISP,944,MACHAKOS,KALAMA,4,MOH
37.286,-1.238,KALANDINI DISP,4267,MACHAKOS,MATUNGULU,4,MOH
37.362325,-1.232352,KAMBUSU DISP,4269,MACHAKOS,MATUNGULU,4,MOH
,,KANG?NDE DISP,,MACHAKOS,MASINGA,4,MOH
37.3445,-1.28944,KANGUNDO HOSPITAL,1037,MACHAKOS,KANGUNDO,1,MOH
37.37,-1.23,KANZALU (MISYANI) DISP,993,MACHAKOS,MWALA,4,MISS
37.37,-1.28,KANZALU (MISYANI) MISSION HEALTH,2579,MACHAKOS,KANGUNDO,3,MISS
37.688071,-1.404542,KATANGI DISP,4270,MACHAKOS,YATTA,4,MISS
37.6764,-1.39932,KATANGI HEALTH CENTRE,1021,MACHAKOS,YATTA,3,MOH
,,KATHAMA DISP,,MACHAKOS,MWALA,4,MOH
37.353,-1.176,KATHEKA DISP,951,MACHAKOS,MWALA,4,MOH
37.3291,-1.41667,KATHIANI HOSPITAL,1038,MACHAKOS,KATHIANI,1,MOH
37.6345,-1.53005,KATULANI DISP,954,MACHAKOS,YATHUI,4,MOH
37.253113,-1.542321,KATUMANI DISP,3564,MACHAKOS,CENTRAL,4,MOH
37.2992,-1.4753,KAVIANI HEALTH CENTRE,1022,MACHAKOS,KATHIANI,3,MOH
,,KENYAATA DISP,,MACHAKOS,KATAANGI,4,MOH
37.273559,-1.183136,KIANZAVE DISP,956,MACHAKOS,MATUNGULU,4,MISS
,,KIITINI DISP,,MACHAKOS,KALAMA,4,MOH
37.6013,-1.24798,KIKESA DISP,3563,MACHAKOS,YATTA,4,MOH
37.282325,-1.283232,KIMITI DISP,4347,MACHAKOS,MATUNGULU,4,MOH
37.263212,-1.613212,KIMUTWA SHC,1047,MACHAKOS,CENTRAL,3,MOH
37.061235,-1.412133,KINANIE DISP,4463,MACHAKOS,MAVOKO,4,MOH
37.6395,-1.33411,KINYATA DISP,963,MACHAKOS,YATTA,4,MOH
37.4413,-1.05604,KISIKI HEALTH CENTRE,966,MACHAKOS,YATTA,3,MOH
37.172321,-1.512321,KITANGANI DISP,4701,MACHAKOS,CENTRAL,4,MOH
37.53,-1.05,KITETA DISP,967,MACHAKOS,MASINGA,4,MISS
37.5964,-1.29104,KITHEUNI DISP,2411,MACHAKOS,YATTA,4,MOH
37.4689,-1.17214,KITHIMANI DISP,968,MACHAKOS,YATTA,4,MOH
37.7859,-1.0745,KITHIOKO HEALTH CENTRE,969,MACHAKOS,MASINGA,3,MOH
,,KITULUNI DISP,,MACHAKOS,MATUNGULU,4,MOH
37.48,-1.07,KITUNDU DISP,972,MACHAKOS,YATTA,4,MISS
37.6998,-0.803821,KIVAA DISP,973,MACHAKOS,MASINGA,4,MOH
37.357,-1.41624,KIVANI DISP,975,MACHAKOS,KANGUNDO,4,MOH
37.35,-1.70429,KOLA DISP,976,MACHAKOS,KALAMA,4,MOH
37.232312,-1.672324,KYAWALIA DISP,4462,MACHAKOS,KALAMA,4,MOH
37.4961,-1.30981,KYAWANGO HEALTH CENTRE,980,MACHAKOS,MWALA,3,MOH
37.502321,-1.312326,KYELENI DISP,981,MACHAKOS,MWALA,4,MOH
37.792326,-0.841232,KYONDONI DISP,4268,MACHAKOS,MASINGA,4,MOH
,,LOMBONI DISP,982,MACHAKOS,,4,MISS
37.263212,-1.513232,MACHAKOS APPROVED SCHOOL DISP,934,MACHAKOS,CENTRAL,4,MOH
37.263232,-1.502321,MACHAKOS DISTRICT HOSPITAL,1040,MACHAKOS,CENTRAL,1,MOH
,,MAKUTANO MEDICAL CLINIC,,MACHAKOS,MAVOKO,4,MOH
,,MAKUYUNI DISP,986,MACHAKOS,,4,MISS
37.263235,-0.853262,MANANJA DISP,248,MACHAKOS,NDITHINI,4,MOH
37.4256,-1.39382,MANGO DISP,4324,MACHAKOS,MWALA,4,MOH
37.4409,-1.45878,MASII HEALTH CENTRE,1025,MACHAKOS,MWALA,3,MOH
37.6259,-0.930548,MASINGA DISP,987,MACHAKOS,MASINGA,4,MOH
37.332325,-1.261233,MATUNGULU DISP,988,MACHAKOS,MATUNGULU,4,MOH
37.546969,-1.142871,MATUU MISSION DISP,3951,MACHAKOS,YATTA,4,MISS
37.5545,-1.13356,MATUU RHDC,1044,MACHAKOS,YATTA,3,MOH
37.417,-1.078,MAVOLONI DISP,3627,MACHAKOS,YATTA,4,MISS
37.5582,-1.00437,MBEMBANI DISP,2461,MACHAKOS,MASINGA,4,MOH
37.3933,-1.24029,MBIUNI SUB-HEALTH CENTRE,991,MACHAKOS,MWALA,3,MOH
37.412326,-0.882326,MILAANI DISP,4460,MACHAKOS,NDITHINI,4,MOH
37.373,-1.27843,MISYANI DISP,4707,MACHAKOS,KANGUNDO,4,MISS
37.232325,-1.362324,MITABONI H C,1029,MACHAKOS,KATHIANI,3,MOH
37.52196,-1.496457,MITAMBONI CATHOLIC DISP,3626,MACHAKOS,YATHUI,4,MISS
37.5853,-1.5362,MIU DISP,994,MACHAKOS,YATHUI,4,MOH
37.2869,-1.35287,MIUMBUNI DISP,2439,MACHAKOS,KATHIANI,4,MOH
37.35278,-1.7041,MOTHER OF MERCY CATHOLIC MISSION,,MACHAKOS,,1,MISS
37.212321,-1.432321,MUA HILLS DISP,995,MACHAKOS,CENTRAL,4,MOH
37.48,-1.2,MULALA DISP,998,MACHAKOS,YATTA,4,MISS
37.4438,-1.27536,MUMBUNI HEALTH CENTRE,999,MACHAKOS,MWALA,3,MOH
37.392327,-0.982325,MUTHESYA DISP,3387,MACHAKOS,NDITHINI,4,MOH
37.5392,-1.50483,MUTHETHENI CATHOLIC DISP,1000,MACHAKOS,YATHUI,4,MISS
37.5379,-1.49991,MUTHETHENI HEALTH CENTRE,1030,MACHAKOS,YATHUI,3,MOH
37.253232,-1.442132,MUTITU DISP,1002,MACHAKOS,CENTRAL,4,MOH
37.352321,-1.312326,MUUSINI DISP,4459,MACHAKOS,KANGUNDO,4,MOH
37.4715,-1.35103,MWALA RHDC,1045,MACHAKOS,MWALA,3,MOH
37.5029,-1.04497,NDALANI DISP,1005,MACHAKOS,YATTA,4,MOH
37.3306,-0.921935,NDITHINI MISSION DISP,1006,MACHAKOS,NDITHINI,4,MISS
37.263233,-1.182325,NDONYO SABUK DISP,1007,MACHAKOS,MATUNGULU,4,MOH
37.2253,-1.38609,NGELANI AIC DISP,1009,MACHAKOS,KATHIANI,4,MISS
37.29,-1.39901,NGOLENI DISP,2577,MACHAKOS,KATHIANI,4,MOH
37.282313,-1.312325,NGULUNI DISP,1010,MACHAKOS,MATUNGULU,4,MOH
37.401235,-1.093235,NYS MAVOLONI DISP,,MACHAKOS,YATTA,4,MOH
37.432326,-1.162533,NYS YATTA DISP,1018,MACHAKOS,YATTA,4,MOH
37.3248,-1.25663,SENGANI DISP,4266,MACHAKOS,MATUNGULU,4,MOH
,,ST JOSEPH KABAA,,MACHAKOS,MWALA,4,MISS
,,ST. KIZITO DISP,4327,MACHAKOS,,4,MISS
37.78443,-1.019693,ST. THERESA THATHA DISP,1033,MACHAKOS,MASINGA,4,MISS
,,SULMAC HEALTH CENTRE,1035,MACHAKOS,,3,MOH
37.321387,-1.266418,TALA (SDA) HOSPITAL,3418,MACHAKOS,MATUNGULU,1,MISS
37.7736,-1.02898,THATHA DISP,3388,MACHAKOS,MASINGA,4,MISS
37.272132,-1.421233,THINU H C,1034,MACHAKOS,KATHIANI,3,MOH
37.6536,-1.59588,TULILA DISP,2502,MACHAKOS,YATHUI,4,MOH
37.5619,-1.40332,WAMUNYU HEALTH CENTRE,1017,MACHAKOS,YATHUI,3,MOH
38.2614,-2.50334,ATHI KAMUYUNI DISP,,MAKUENI,KIBWEZI,4,MOH
37.536239,-1.961957,GIGIRI DISP,4233,MAKUENI,MATILIKU,4,MISS
37.87744,-1.87324,IIANI DISP,,MAKUENI,KATHONZWENI,4,MOH
37.5161,-1.74001,IUANI DISP,,MAKUENI,KAITI,4,MOH
37.64669,-1.694532,KAKO DISP,942,MAKUENI,WOTE,4,MOH
37.5847,-1.91328,KALAMBA  A I C DISP,945,MAKUENI,MATILIKU,4,MISS
37.71162,-1.64506,KALAWA HEALTH CENTRE,1020,MAKUENI,KALAWA,3,MOH
37.391523,-1.6308,KALI DISP,,MAKUENI,MBOONI,4,MOH
37.76038,-2.10167,KALII SUB H C,946,MAKUENI,MAKINDU,3,MOH
37.99387,-2.34879,KALULINI SUB HEALTH CENTRE,4229,MAKUENI,KIBWEZI,3,MOH
38.0651,-2.58517,KAMBU MISS DISPENSARY,949,MAKUENI,MTITO ANDEI,4,MISS
37.30416,-1.87094,KAMUTHINI A B C DISP,,MAKUENI,KILOME,4,MISS
38.07515,-2.2884,KANYUNGU DISP,,MAKUENI,KIBWEZI,4,MOH
37.7965,-1.92433,KANZOKEA COMMUNITY DISP,,MAKUENI,KATHONZWENI,4,MOH
37.38147,-1.94467,KASIKEU DISP,950,MAKUENI,KASIKEU,4,MOH
37.73206,-1.91107,KATHONZWENI MISSON DISP,2908,MAKUENI,KATHONZWENI,4,MISS
37.72884,-1.91277,KATHONZWENI SUB H C,952,MAKUENI,KATHONZWENI,3,MOH
37.78815,-1.73039,KATHULUMBI SUB H C,953,MAKUENI,KALAWA,3,MOH
37.98967,-2.26236,KATHYAKA DISP,4693,MAKUENI,KIBWEZI,4,MOH
37.4502,-1.84824,KATULYE CATHOLIC DISP,,MAKUENI,KILUNGU,4,MISS
37.7586,-1.62675,KAUMBUU DISP,4691,MAKUENI,KALAWA,4,MOH
,,KAVUMBU DISP,,MAKUENI,KALAWA,4,MOH
37.76875,-2.06983,KIANGINI CHANDARIA DIS,4228,MAKUENI,KATHONZWENI,4,MOH
37.72598,-2.24791,KIBOKO DISP,253,MAKUENI,MAKINDU,4,MOH
37.96676,-2.4096,KIBWEZI HEALTH CENTRE,1023,MAKUENI,KIBWEZI,3,MOH
37.944,-2.37591,KIBWEZI MISSION DISP,958,MAKUENI,KIBWEZI,4,MISS
37.39525,-1.80375,KIKOKO MISSION HOSPITAL,1039,MAKUENI,KILUNGU,1,MISS
37.57379,-2.04329,KIKUMINI HEALTH CENTRE,959,MAKUENI,NGUU,3,MOH
37.55475,-1.76347,KILALA DISP,960,MAKUENI,KAITI,4,MOH
37.59446,-1.91461,KILILI SHC,3524,MAKUENI,MATILIKU,4,MOH
37.360804,-1.792228,KILUNGU DISP,961,MAKUENI,KILUNGU,4,MISS
37.55719,-1.62502,KISAU HEALTH CENTRE,965,MAKUENI,KISAU,3,MOH
38.01579,-2.32084,KISAYANI CCDP DISP,,MAKUENI,KIBWEZI,4,NGO
37.5373,-1.55925,KITETA DISP,,MAKUENI,KISAU,4,MOH
37.85507,-1.98943,KITHUKI DISP,970,MAKUENI,KATHONZWENI,4,MOH
38.17197,-2.39693,KITHYULULU DISP,4323,MAKUENI,KIBWEZI,4,MOH
37.87693,-2.05631,KITISE HEALTH CENTRE,1024,MAKUENI,KATHONZWENI,3,MOH
37.4886,-1.73051,KITUNDU SDA DISP,4236,MAKUENI,MBOONI,4,MISS
37.17254,-1.89677,KIU A I C DISP,4354,MAKUENI,KILOME,4,MISS
,,KIVANI DISP,,MAKUENI,KAITI,4,MOH
37.7102,-2.00468,KWAKAVISI DISP,977,MAKUENI,KATHONZWENI,4,MOH
,,KWALE DISP,,MAKUENI,KASIKEU,4,MOH
37.97803,-2.55381,KYAANI DISP,4454,MAKUENI,KIBWEZI,4,MOH
37.6718,-1.6711,KYALUMA DISP,,MAKUENI,KALAWA,4,MOH
37.42121,-1.84555,KYAMBEKE DISP,978,MAKUENI,KILUNGU,4,MOH
37.4701,-1.78771,KYUASINI DISP,4232,MAKUENI,KAITI,4,MOH
,,KYUMBE AIC DISP,,MAKUENI,MBITINI,4,MISS
37.82758,-2.26251,MAKINDU CATHOLIC DISP,984,MAKUENI,MAKINDU,4,MISS
37.82413,-2.28127,MAKINDU SUB-DISTRICT HOSPITAL,1041,MAKUENI,MAKINDU,1,MOH
37.6139,-1.82537,MAKUENI CATHOLIC DISP,985,MAKUENI,WOTE,4,MISS
37.62703,-1.78103,MAKUENI DISTRICT HOSPITAL,1042,MAKUENI,WOTE,1,MOH
38.12828,-2.36843,MASONGALENI HEALTH CENTRE,1026,MAKUENI,KIBWEZI,3,MOH
37.61894,-2.02439,MASUMBA DISP,4234,MAKUENI,NGUU,4,MOH
37.5495,-1.98098,MATILIKU CATHOLIC DISP,,MAKUENI,MATILIKU,4,MISS
37.53499,-1.94649,MATILIKU HEALTH CENTRE,1027,MAKUENI,MATILIKU,3,MOH
37.78557,-1.81798,MAVINDINI HEALTH CENTRE,989,MAKUENI,KATHONZWENI,3,MOH
37.47643,-1.96252,MBENUU DISP,4235,MAKUENI,MBITINI,4,MOH
37.4977,-2.02343,MBIITINI MISS DIS,990,MAKUENI,MBITINI,4,MISS
37.45319,-1.65649,MBOONI  SDH,1028,MAKUENI,MBOONI,1,MOH
37.4126,-1.61115,MBOONI A I C DISP,992,MAKUENI,TULIMANI,4,MISS
37.4747,-1.91376,MBYANI CATHOLIC DISP,,MAKUENI,MATILIKU,4,MISS
38.07439,-2.59459,MERCY SISTERS  DISP,1014,MAKUENI,MTITO ANDEI,4,MISS
38.16549,-2.671688,MTITO ANDEI HEALTH CENTRE,1001,MAKUENI,MTITO ANDEI,3,MOH
37.32611,-1.83217,MUKAA  A I C SUB-HEALTH CENTRE,996,MAKUENI,KILOME,3,MISS
37.45857,-1.74542,MUKUYUNI HEALTH CENTRE,997,MAKUENI,KAITI,3,MOH
37.48,-2.02,MULALA DISP,,MAKUENI,MBITINI,4,MISS
37.6245,-1.92721,MUMBUNI DISP,4231,MAKUENI,WOTE,4,MOH
37.77224,-2.00975,MUMO A I C  HEALTH CENTRE,3219,MAKUENI,KATHONZWENI,3,MISS
,,MUSALALA DISP,,MAKUENI,KILUNGU,4,MOH
37.81112,-1.69642,MUTEMBUKU SUB HEALTH CENTRE,654,MAKUENI,KALAWA,3,MOH
37.44551,-1.94467,MUTYAMBUA SUB HEALTH CENTRE,1003,MAKUENI,MBITINI,3,MOH
37.3093,-1.89966,MUUA RURAL HEALTH CENTRE,,MAKUENI,KILOME,3,MISS
,,MWANIA DISP,,MAKUENI,KATHONZWENI,4,MOH
37.51138,-2.02779,MWANYANI HC,1004,MAKUENI,MBITINI,4,MOH
37.68008,-2.06572,MWEINI DISP,247,MAKUENI,NGUU,4,MOH
37.4947,-1.7158,NGAI DISP,1008,MAKUENI,MBOONI,4,MOH
38.29079,-2.66435,NGILUNI DISP,,MAKUENI,MTITO ANDEI,4,MOH
38.04904,-2.52758,NGWATA SUB HEALTH CENTRE,1011,MAKUENI,MTITO ANDEI,3,MOH
38.04729,-2.70281,NTHONGONI DISP,3523,MAKUENI,MTITO ANDEI,4,MOH
37.35991,-1.78343,NUNGUNI SDH,1031,MAKUENI,KILUNGU,1,MOH
37.4947,-1.97433,NZEENI LIONS DISP,,MAKUENI,MBITINI,4,NGO
37.99668,-2.59171,NZEVENI SUB HEALTH CENTRE,3665,MAKUENI,MTITO ANDEI,3,MOH
37.53664,-1.81368,NZIU SUB HEALTH CENTRE,1012,MAKUENI,MATILIKU,3,MOH
37.25772,-1.85061,SALAMA  BAPTIST MEDICAL DISP,,MAKUENI,KILOME,4,MISS
37.53555,-1.94475,ST. MICHAELS DISP,,MAKUENI,MATILIKU,4,MISS
37.64139,-2.04195,ST. MICHAELS DISP,,MAKUENI,NGUU,4,MISS
38.1663,-2.69202,SULEIMAN FARUK MEMORIAL MEDICAL,,MAKUENI,TSAVO WEST,4,NGO
37.38714,-2.01401,SULTAN HAMUD HEALTH CENTRE,1032,MAKUENI,KASIKEU,3,MOH
37.92147,-2.27925,SYUMILE DISP,695,MAKUENI,MAKINDU,4,MOH
37.46568,-1.54532,TAWA DEMONSTRATION H C,1046,MAKUENI,KISAU,3,MOH
37.4163,-1.59196,TULIMANI DISP,699,MAKUENI,TULIMANI,4,MOH
37.49809,-1.75812,UKIA DISP,1015,MAKUENI,KAITI,4,MOH
37.34901,-1.85439,UPETE DISP,1016,MAKUENI,KILOME,4,MOH
,,WATEMA DISP,,MAKUENI,KAITI,4,MOH
37.35324,-1.88054,WATHINI ACK HC,,MAKUENI,KASIKEU,3,MISS
,,YIMWAA DISP,,MAKUENI,MAKINDU,4,MOH
37.32,3.62,BALESA DISP,3372,MARSABIT,NORTH HORR,4,MOH
38.11,2.59,BUBISA DISP,1048,MARSABIT,MAIKONA,4,MOH
38.0804,2.27459,DIRIB GOMBO DISP,1050,MARSABIT,GADAMOJI,4,MISS
37.242123,3.932321,DUKANA DISP,1051,MARSABIT,NORTH HORR,4,MOH
36.71,3.22,GAS DISP,3374,MARSABIT,NORTH HORR,4,MOH
36.951122,2.565737,GATAB AIC DISP,1064,MARSABIT,LOIYANGALANI,4,MISS
37.8293,3.48922,HURI HILLS DISP,,MARSABIT,MAIKONA,4,MOH
37.249495,1.927378,ILLAUT DISP,4321,MARSABIT,LAISAMIS,4,MISS
36.4309,4.04737,ILLERET SUB HEALTH CENTRE,1053,MARSABIT,NORTH HORR,3,MOH
37.4235,3.17081,KALACHA DISP,1054,MARSABIT,MAIKONA,4,MISS
37.9,2.22,KARARE DISP,1055,MARSABIT,CENTRAL,4,MISS
37.4018,2.49874,KARGI DISP,1056,MARSABIT,LOIYANGALANI,4,MISS
37.496,2.06362,KORR DISP,3136,MARSABIT,LAISAMIS,4,MISS
38.2785,1.59324,KOYA DISP,3376,MARSABIT,LAISAMIS,4,MOH
37.8004,1.6001,"LAISAMIS MISS. HOSPITAL, DIOCESE",1067,MARSABIT,LAISAMIS,1,MISS
37.89,1.98,LOGOLOGO DISP,1058,MARSABIT,LAISAMIS,4,MISS
36.4454,3.04149,LOIYANGALANI DISP,1065,MARSABIT,LOIYANGALANI,4,MISS
37.762325,2.812325,MAIKONA DISP,2386,MARSABIT,MAIKONA,4,MOH
37.8945,3.12833,MAIKONA DISP,1059,MARSABIT,MAIKONA,4,MISS
38.09,2.44,MANYATTA JILLO DISP,4686,MARSABIT,GADAMOJI,4,MOH
37.983,2.331,MARSABIT CATHOLIC DISP,1060,MARSABIT,CENTRAL,4,MISS
37.985249,2.324839,MARSABIT DISTRICT HOSPITAL,1068,MARSABIT,CENTRAL,1,MOH
37.782325,1.492321,MERILLE DISP,4322,MARSABIT,LAISAMIS,4,MOH
37.38,1.75,NGURUNIT DISP,1061,MARSABIT,LAISAMIS,4,MISS
37.0757,3.39515,NORTH HORR HEALTH CENTRE,1066,MARSABIT,NORTH HORR,3,MISS
38.089029,2.328398,SAGANTE DISP,3375,MARSABIT,GADAMOJI,4,MOH
,,SAKAWA DISP,,MARSABIT,,4,MOH
38.0581,2.21373,SONGA DISP,1062,MARSABIT,CENTRAL,4,MOH
38.355247,2.997043,TURBI DISP,3380,MARSABIT,MAIKONA,4,MOH
37.82321,-0.672321,GACABARI DISP,3391,MBEERE,GACHOKA,4,MOH
,,GACHURIRI DISP,,MBEERE,GACHOKA,4,MOH
,,GATEGI H C,,MBEERE,MWEA,3,MOH
37.661,-0.712575,IRIAMURAI DISP,806,MBEERE,GACHOKA,4,MISS
37.7833,-0.452179,ISHIARA SUB-DISTRICT HOSPITAL,841,MBEERE,EVURORE,1,MOH
37.7055,-0.728532,KABUGURI DISP,3420,MBEERE,GACHOKA,4,MOH
37.59,-0.53,KAMBORA DISP,,MBEERE,SIAKAGO,4,MISS
37.7249,-0.500292,KAMUMU DISP,808,MBEERE,EVURORE,4,MOH
37.7169,-0.466099,KANYUAMBORA DISP,812,MBEERE,EVURORE,4,MOH
37.3704,-0.776973,KARABA DISP,813,MBEERE,MWEA,4,MOH
37.38,-0.79,KARABA WANGO DISP,,MBEERE,MWEA,4,MISS
37.70991,-0.621172,KATHANJE DISP,2520,MBEERE,SIAKAGO,4,MOH
37.8007,-0.691489,KIAMBERE HEALTH CENTRE,836,MBEERE,GACHOKA,3,MOH
37.5288,-0.571812,KIAMURINGA DISP,818,MBEERE,GACHOKA,4,MOH
37.7739,-0.573522,KIRIE DISP,820,MBEERE,SIAKAGO,4,MOH
37.6411,-0.678952,KIRITIRI HEALTH CENTRE,839,MBEERE,GACHOKA,3,MOH
37.51126,-0.754054,KITOLOLONI CATHOLIC DISP,,MBEERE,MWEA,4,MISS
37.55,-0.64,LIVIERO DISP,,MBEERE,GACHOKA,4,MISS
37.6599,-0.777543,MACHANGA DISP,822,MBEERE,GACHOKA,4,MOH
37.5773,-0.766714,MAKIMA DISP,824,MBEERE,MWEA,4,MOH
37.572321,-0.762324,MASHAMBA DISP,4258,MBEERE,MWEA,4,MISS
37.640991,-0.575225,MBEERE DISTRICT HOSP,843,MBEERE,SIAKAGO,1,MOH
37.5315,-0.817921,MBONDONI DISP,3421,MBEERE,MWEA,4,MOH
37.535814,-0.639417,MOTHER MAZERERO MISSION DISP,825,MBEERE,GACHOKA,4,MISS
37.8879,-0.431906,MUTHATHARA DISP,3760,MBEERE,EVURORE,4,MOH
37.48,-0.75,MWEA COTTAGE HOSPITAL,,MBEERE,MWEA,1,MISS
37.5972,-0.698898,NGANDURI DISP,828,MBEERE,GACHOKA,4,MOH
37.8331,-0.78951,RIACHINA DISP,2866,MBEERE,GACHOKA,4,MOH
37.4046,-0.841058,RIAKANAU DISP,831,MBEERE,MWEA,4,MOH
37.5887,-0.526221,RIANDU DISP,2282,MBEERE,SIAKAGO,4,MOH
37.4826,-0.600877,RWIKA DISP,832,MBEERE,GACHOKA,4,MOH
37.6451,-0.574662,SIAKAGO DISP (DON BOSCO),833,MBEERE,SIAKAGO,4,MISS
37.78,-0.57,ST JOHN BAPTIST DISP,,MBEERE,SIAKAGO,4,MISS
37.3105,-0.759876,WACHORO DISP,834,MBEERE,MWEA,4,MOH
,,AMA DISP,4351,MOYALE,,4,MOH
39.00012,3.44123,BORI DISP,3378,MOYALE,CENTRAL,4,MOH
39.252721,3.104744,DABEL DISP,3377,MOYALE,GOLBO,4,MISS
38.83231,3.42123,DAMBALA FACHANA DISP,1049,MOYALE,OBBU,4,MOH
39.277306,3.42103,GODOMA DISP,1052,MOYALE,GOLBO,4,MOH
38.57231,3.572321,GOLOLE DISP,3379,MOYALE,URAN,4,MOH
39.026077,3.499712,MOYALE DISTRICT HOSPITAL,1069,MOYALE,CENTRAL,1,MOH
38.672035,3.288957,SOLOLO MISS. HOSPITAL,1070,MOYALE,OBBU,1,MISS
38.6,3.57,TURBI DISP,4307,MOYALE,URAN,4,MISS
38.563988,3.610375,URAN DISP,1063,MOYALE,URAN,4,MOH
38.448367,3.604252,WALDA DISP,4306,MOYALE,URAN,4,MISS
38.0502,-1.06716,AIC KYOME DISP,3664,MWINGI,MIGWANI,4,MISS
38.06,-0.926,C.P.K. MWINGI DISP,,MWINGI,CENTRAL,4,MISS
38.16231,-0.91254,ENZIU DISP,875,MWINGI,CENTRAL,4,MOH
37.99,-1.08153,KALILUNI DISP,,MWINGI,MIGWANI,4,MOH
38.0525,-0.979063,KALISASI DISP,4585,MWINGI,CENTRAL,4,MOH
38.1075,-0.979063,KANYONGA DISP,3796,MWINGI,CENTRAL,4,MOH
38.1163,-1.06166,KATALAWA DISP,3776,MWINGI,CENTRAL,4,MOH
38.0723,-0.52534,KATSE DISP,882,MWINGI,MUUMONI,4,MOH
,,KAVINDU DISP,,MWINGI,NUU,4,MOH
38.1472,-0.538555,KIMANGAO HEALTH CENTRE,921,MWINGI,KYUSO,3,MISS
38.01,-1.15,KITHUMULA CURRAN DISP,4587,MWINGI,MIGWANI,4,MISS
38.243,-1.02311,KITISE DISP,3093,MWINGI,NUU,4,MOH
38.48241,-0.782321,KITUI ROAD N.Y.S. DISP,,MWINGI,NGUNI,4,MOH
38.0282,-0.479087,KONYU DISP,4196,MWINGI,MUUMONI,4,MOH
37.98253,-0.93231,KYAENI DISP,4584,MWINGI,CENTRAL,4,MOH
38.192324,-0.592321,KYUSO G. K. PRISON DISP,,MWINGI,KYUSO,4,MOH
38.2176,-0.569391,KYUSO HEALTH CENTRE,891,MWINGI,KYUSO,3,MISS
38.16232,-0.53231,KYUSO SUB-DISTRICT HOSP,4204,MWINGI,KYUSO,1,MOH
38.3313,-0.379401,MASYUNGWA DISP,4580,MWINGI,TSEIKURU,4,MOH
38.0062,-1.08919,MIGWANI SUB-DISTRICT HOSP,923,MWINGI,MIGWANI,1,MOH
38.2154,-0.407504,MIVUKONI DISP,894,MWINGI,KYUSO,4,MOH
38.2066,-1.11892,MUI DISP,895,MWINGI,NUU,4,MOH
37.9434,-0.571593,MUUMONI DISP,898,MWINGI,MUUMONI,4,MOH
38.0673,-0.9334,MWINGI DISTRICT HOSPITAL,932,MWINGI,CENTRAL,1,MOH
38.4302,-0.643176,NGOMENI DISP,905,MWINGI,NGOMENI,4,MOH
38.0364,-0.593329,NGUNGANI DISP,4581,MWINGI,MUUMONI,4,MOH
38.309,-0.80286,NGUNI HEALTH CENTRE,925,MWINGI,NGUNI,3,MOH
38.3608,-1.05615,NUU CATHOLIC DISP/ PHC UNIT,906,MWINGI,NUU,4,MISS
38.3641,-1.06937,NUU HEALTH CENTRE,926,MWINGI,NUU,3,MOH
38.302053,-1.149878,NYAANI DISP,4682,MWINGI,NUU,4,MOH
,,NZATANI DISP,,MWINGI,CENTRAL,4,MOH
37.8983,-1.11452,NZAWA DISP,907,MWINGI,MIGWANI,4,MOH
38.0315,-1.11452,NZELUNI DISP,909,MWINGI,MIGWANI,4,MOH
38.1956,-0.607935,TEI WA YESU PCEA HC,927,MWINGI,KYUSO,3,MISS
37.86232,-0.89232,THANA NZAU DISP,4586,MWINGI,MIGWANI,4,MOH
38.0172,-0.311694,THARAKA DISP,911,MWINGI,MUUMONI,4,MOH
38.2121,-0.832594,THITHA DISP,4582,MWINGI,CENTRAL,4,MOH
37.9291,-1.04514,THITHANI DISP,3840,MWINGI,MIGWANI,4,MISS
38.2011,-0.319403,TSEIKURU HEALTH CENTRE,928,MWINGI,TSEIKURU,3,MOH
,,TUVAANI DISP,,MWINGI,NUU,4,MOH
37.9624,-0.725749,TYAA KAMUTHALE DISP,913,MWINGI,MUUMONI,4,MOH
38.5293,-0.808366,UKASI DISP,3098,MWINGI,NGUNI,4,MOH
38.2176,-0.137693,USUENI DISP,914,MWINGI,TSEIKURU,4,MOH
38.1379,-0.783305,WAITA DISP,916,MWINGI,CENTRAL,4,MOH
38.5073,-1.05285,WINGEMI DSIPENSARY,4195,MWINGI,NUU,4,MOH
37.9291,-0.946025,WINZIEI DISP,917,MWINGI,MIGWANI,4,MOH
37.90234,0.20324,AKACHIU H C (KANUNI H C),2516,NORTH MERU,IGEMBE S/WEST,3,MOH
37.749496,0.157514,AMATU DISP,1071,NORTH MERU,TIGANIA WEST,4,MISS
37.889069,0.163418,AMUGAA DISP,4695,NORTH MERU,TIGANIA EAST,4,MOH
37.991665,0.174839,AMUNGENTI DISP,1072,NORTH MERU,IGEMBE SOUTH,4,MISS
37.807005,0.229768,ANGILI DISP,1073,NORTH MERU,TIGANIA NORTH,4,MISS
37.952832,0.266706,ANTUBETWE NJOUNE DISP,2931,NORTH MERU,IGEMBE EAST,4,MISS
37.97,0.22,ATHIRU GAITI DISP (KIRAONE DISP),2517,NORTH MERU,IGEMBE S/EAST,4,MISS
37.940797,0.240598,CCS DISP,,NORTH MERU,IGEMBE CENTRAL,4,MISS
37.825027,0.192156,CHARURU DISP,,NORTH MERU,TIGANIA NORTH,4,MOH
37.88378,0.274775,KANGETA DISP,,NORTH MERU,IGEMBE NORTH,4,MISS
37.8746,0.266577,KANGETA H C,1096,NORTH MERU,IGEMBE NORTH,4,MOH
37.910418,0.213503,KANTHIARI DISP,,NORTH MERU,IGEMBE CENTRAL,4,MOH
37.92,0.23,KIEGOI DISP,3804,NORTH MERU,IGEMBE CENTRAL,4,MOH
37.97,0.27,KIENGU DISP,,NORTH MERU,IGEMBE EAST,4,MISS
37.777405,0.097733,KIMACHIA DISP,,NORTH MERU,URINGU,4,MOH
38.129882,0.290141,KINA DISP,1119,NORTH MERU,NDOLELI,4,MOH
37.815995,0.145355,KITHEO DISP,,NORTH MERU,AKITHI,4,MOH
37.930123,0.085417,KUNATI DISP,,NORTH MERU,TIGANIA EAST,4,MOH
37.71242,0.13256,KUNENE DISP,1125,NORTH MERU,URINGU,4,MOH
37.9391,0.33692,LAARE HEALTH CENTRE,1169,NORTH MERU,LAARE,3,MOH
37.689346,0.152893,LIMAURU DISP,,NORTH MERU,URINGU,4,MOH
37.707853,0.256089,LIMORO DISP,,NORTH MERU,AKITHI,4,MOH
37.9335,0.2332,MAUA METHODIST HOSPITAL,1180,NORTH MERU,IGEMBE CENTRAL,1,MISS
37.835769,0.216919,MBARANGA MISSION DISP,1132,NORTH MERU,TIGANIA NORTH,4,MISS
37.80232,0.08231,MBEU RURAL DEMONSTRATION UNIT,3431,NORTH MERU,URINGU,3,MOH
37.7912,0.14875,MIATHENE SUB-DISTRICT HOSPITAL,1172,NORTH MERU,TIGANIA WEST,1,MOH
37.834147,0.126174,MIKINDURI COTTAGE HOSPITAL,,NORTH MERU,TIGANIA CENTRAL,1,MISS
37.836,0.123208,MIKINDURI DISP,1136,NORTH MERU,TIGANIA CENTRAL,4,MOH
37.677007,0.186778,MITUNTU DISP,,NORTH MERU,TIGANIA WEST,4,MOH
37.860084,0.191672,MUCII MUKURU DISP,1135,NORTH MERU,TIGANIA CENTRAL,4,MISS
37.7975,0.227599,MUTHARA DISP,1145,NORTH MERU,TIGANIA NORTH,4,MOH
37.74123,0.17241,MUTIONJURI DISP,4205,NORTH MERU,TIGANIA WEST,4,MOH
37.99369,0.38513,MUTUATI DISP,3045,NORTH MERU,MUTUATI,4,MISS
37.9798,0.385305,MUTUATI H C,1149,NORTH MERU,MUTUATI,3,MOH
37.656957,0.243768,MWERAO-NKANGA DISP,2742,NORTH MERU,AKITHI,4,MOH
37.842063,0.269916,NKINYANGA DISP,3805,NORTH MERU,TIGANIA NORTH,4,MISS
38.035183,0.241231,NTHAMBIRO CATHOLIC DISP,,NORTH MERU,IGEMBE EAST,4,MISS
38.043906,0.246372,NTHAMBIRO DISP,3807,NORTH MERU,IGEMBE EAST,4,MOH
37.93232,0.242123,NYAMBENE DISTRICT HOSPITAL,4423,NORTH MERU,IGEMBE CENTRAL,1,MOH
37.770015,0.074744,ST JOHN'S DISP,,NORTH MERU,URINGU,4,MISS
37.998695,0.169265,ST. JOHN CATHOLIC DISP,,NORTH MERU,IGEMBE SOUTH,4,MISS
37.883342,0.255214,ST. JOSEPH DISP (NYAMBENE),3949,NORTH MERU,IGEMBE NORTH,4,MISS
37.783821,0.20715,TIGANIA CATHOLIC HOSPITAL,1183,NORTH MERU,TIGANIA NORTH,1,MISS
37.943294,0.143445,TIIRA DISP,3808,NORTH MERU,IGEMBE S/WEST,4,MISS
37.734072,0.145962,URINGU DISP,4694,NORTH MERU,URINGU,4,MOH
37.67,-0.24,BARAGU DISP,,SOUTH MERU,MWIMBI,4,MOH
37.71,-0.35,CHEERA DISP,2685,SOUTH MERU,CHUKA,4,MISS
37.648978,-0.32926,CHUKA CONSOLATA COTTAGE HOSPITAL,1166,SOUTH MERU,CHUKA,1,MISS
37.645496,-0.32748,CHUKA HOSPITAL,1179,SOUTH MERU,CHUKA,1,MOH
37.677928,-0.21578,ERUMA DISP - NGURUKI DISP,1075,SOUTH MERU,MWIMBI,4,MISS
37.627467,-0.227369,GAATIA (PCEA) DISP,1076,SOUTH MERU,MWIMBI,4,MISS
37.73,-0.27,IKUMBO (PCEA) DISP,2524,SOUTH MERU,MWIMBI,4,MISS
37.6561,-0.372752,IKUU DISP,3443,SOUTH MERU,MAGUMONI,4,MISS
37.61,-0.27,IRIGA DISP,1085,SOUTH MERU,MUTHAMBI,4,MISS
37.7083,-0.415323,ITUGURURU DISP,4129,SOUTH MERU,IGAMBANG'OMBE,4,MISS
37.716311,-0.318921,KAANWA DISP,1088,SOUTH MERU,CHUKA,4,MISS
37.77,-0.17,KAARE CCM DISP,3621,SOUTH MERU,MWIMBI,4,MISS
37.77,-0.19,KAARE PCEA DISP,1089,SOUTH MERU,MWIMBI,4,MISS
37.8508,-0.311828,KAJIAMPAU DISP,1091,SOUTH MERU,IGAMBANG'OMBE,4,MISS
37.668919,-0.352703,KAMBANDI DISP,1095,SOUTH MERU,CHUKA,4,MISS
37.83232,-0.34231,KANJUKI HEALTH CENTRE,1092,SOUTH MERU,IGAMBANG'OMBE,3,MOH
37.68,-0.24,KARIAKOMO MISSION DISP,1102,SOUTH MERU,MWIMBI,4,MISS
37.69,-0.298835,KARIMBA DISP,1103,SOUTH MERU,MUTHAMBI,4,MISS
37.699153,-0.330064,KARONGONI CATHOLIC DISP,2728,SOUTH MERU,CHUKA,4,MISS
37.71,-0.23,KIAIRUGU DISP,2528,SOUTH MERU,MWIMBI,4,MISS
37.66,-0.22,KIAMUCHAIRU DISP,3948,SOUTH MERU,MWIMBI,4,MISS
37.59,-0.36,KIAMURIUKI DISP,1109,SOUTH MERU,MT. KENYA FOREST,4,MISS
37.6156,-0.3181,KIANGONDU DISP,1110,SOUTH MERU,CHUKA,4,MISS
37.62027,-0.36982,KIBUGUA DISP,1113,SOUTH MERU,MAGUMONI,4,MOH
37.7,-0.22,KIENI DISP,1114,SOUTH MERU,MWIMBI,4,MISS
37.77,-0.23,KIERA WOMANS GUILD DISP,,SOUTH MERU,MWIMBI,4,MISS
37.6443,-0.344086,KIERENI DISP,1115,SOUTH MERU,CHUKA,4,MISS
37.7,-0.38,KIGOGO DISP,3295,SOUTH MERU,CHUKA,4,MISS
37.6393,-0.290323,KIINI DISP,2720,SOUTH MERU,MUTHAMBI,4,MOH
37.627,-0.26,KIRIANI DISP,1123,SOUTH MERU,MWIMBI,4,MISS
37.71,-0.21,KIROO DISP,3585,SOUTH MERU,MWIMBI,4,MISS
37.702703,-0.23964,KIRUMI DISP,810,SOUTH MERU,MWIMBI,4,MOH
37.66,-0.41,MAGENKA DISP,,SOUTH MERU,MAGUMONI,4,MISS
37.68,-0.3,MAGUNDU DISPENSARY,2683,SOUTH MERU,MUTHAMBI,4,MISS
37.751235,-0.23523,MAGUTUNI SUB-DISTRICT HOSPITAL,1126,SOUTH MERU,MWIMBI,1,MOH
37.64,-0.3,MINUGU DISP,,SOUTH MERU,MUTHAMBI,4,MISS
37.6608,-0.380376,MPUKONI HEALTH CENTRE,1175,SOUTH MERU,MAGUMONI,3,MOH
37.711171,-0.257658,MUKUI DISP,1143,SOUTH MERU,MWIMBI,4,MOH
37.651,-0.387097,MUKUUNI DISP,1144,SOUTH MERU,MAGUMONI,4,MISS
37.76,-0.28,MUMBUNI DISP,3950,SOUTH MERU,MUTHAMBI,4,MOH
37.73,-0.28,MURAMBANI DISP,2739,SOUTH MERU,MUTHAMBI,4,MISS
37.69,-0.27,MUTHAMBI CATHOLIC DISP,1146,SOUTH MERU,MUTHAMBI,4,MISS
37.68,-0.28,MUTHAMBI HEALTH CENTRE,3296,SOUTH MERU,MUTHAMBI,3,MOH
37.60048,-0.238288,MUTINDWA DISP,1148,SOUTH MERU,MWIMBI,4,MISS
37.671,-0.244,NGERU DISP,1152,SOUTH MERU,MWIMBI,4,MISS
37.62,-0.28,NYANGANI DISP,2749,SOUTH MERU,MUTHAMBI,4,MISS
37.6065,-0.21121,P.C.E.A. CHOGORIA MISS. HOSP,1178,SOUTH MERU,MWIMBI,1,MISS
37.63,-0.23,THINDIGWA DISP,,SOUTH MERU,MWIMBI,4,MISS
37.7133,-0.363351,WERU DISP,1164,SOUTH MERU,CHUKA,4,MISS
37.92,-0.28,CHIAKARIGA HEALTH CENTRE,1165,THARAKA,SOUTH THARAKA,3,MOH
38.000418,-0.097054,GATUNGA MISSION DISP,1078,THARAKA,CENTRAL THARAKA,4,MISS
37.97,-0.32,KAMANYAKI DISP,1093,THARAKA,SOUTH THARAKA,4,MOH
37.90093,-0.149053,KANYURU DISP,746,THARAKA,CENTRAL THARAKA,4,MOH
38.13,-0.12,KATHAGACHINI  DISP,759,THARAKA,NORTH THARAKA,4,MOH
37.8041,-0.193403,MATERI GIRLS SCH DISP,3447,THARAKA,SOUTH THARAKA,4,MISS
37.91243,-0.31234,MATIRI MISSION HOSPITAL,3556,THARAKA,SOUTH THARAKA,1,MISS
37.93,0.03,MUKOTHIMA H C,2705,THARAKA,NORTH THARAKA,3,MISS
37.956,-0.04053,NKONDI DISP,1156,THARAKA,CENTRAL THARAKA,4,MOH
37.88,-0.1,RUUNGU DISP,4127,THARAKA,CENTRAL THARAKA,4,MISS
37.97,-0.16,THARAKA DISTRICT HOSPITAL,1170,THARAKA,CENTRAL THARAKA,1,MOH
38.04,-0.17,TUNYAI DISP,1160,THARAKA,NORTH THARAKA,4,MOH
38.2,-0.13,USUENI DISP,4128,THARAKA,NORTH THARAKA,4,MOH
40.5711,-0.41064,ALIJUGUR DISP,1187,GARISSA,JARAJILA,4,MOH
38.831,0.42712,BENANE DISP,1189,GARISSA,BENANE,4,MOH
40.526,-1.84772,BODHAI DISP,,GARISSA,IJARA,4,MOH
39.660428,-0.48067,BULA IFTIN DISP,,GARISSA,CENTRAL,4,NGO
39.724797,-0.349028,BULLAMEDINA DISP,,GARISSA,CENTRAL,4,MOH
39.9782,-1.0164,BURA DISP,1190,GARISSA,BURA,4,MOH
40.212,-0.08411,DAADAB SUB- HEALTH CENTRE,1191,GARISSA,JARAJILA,3,MOH
40.342856,0.150541,DAGAHALEY HOSPITAL,2512,GARISSA,DADAAB,1,MISS
40.816,-1.23551,GALMAGALLA DISP,1192,GARISSA,HULUGHO,4,MOH
39.649818,-0.448781,GARISSA DISP (MCH/FP),1200,GARISSA,CENTRAL,4,MOH
39.7739,-0.334012,GARISSA PROVINCIAL GENERAL HOSPI,1209,GARISSA,CENTRAL,2,MOH
40.371544,0.01613,HAGADERA HOSPITAL,2513,GARISSA,JARAJILA,1,MISS
40.2083,-1.83404,HORA DISP,,GARISSA,MASALANI,4,MOH
41.5061,-1.57508,HULUGHO SUB HEALTH CENTRE,1194,GARISSA,HULUGHO,3,MOH
40.32,0.07,IFO HOSPITAL,2511,GARISSA,DADAAB,1,MISS
39.7138,-0.52509,IFTIN HEALTH CENTRE,4709,GARISSA,CENTRAL,3,MISS
40.6083,-1.54577,IJARA DISP,1195,GARISSA,IJARA,4,MOH
39.7138,-0.374338,ISLAMIC AFRICAN RELIEF AGENCY DI,1196,GARISSA,CENTRAL,4,MISS
39.7849,-0.5653,KORA KORA DISP,1197,GARISSA,CENTRAL,4,MOH
40.2489,-1.91216,KOTILE DISP,,GARISSA,MASALANI,4,MOH
40.8309,0.34724,LIBOI HEALTH CENTRE,1205,GARISSA,LIBOI,3,MOH
40.0427,-1.23551,MASABUBU DISP,1198,GARISSA,BURA,4,MOH
40.2964,-1.6501,MASALANI HEALTH CENTRE,1207,GARISSA,MASALANI,3,MOH
39.0759,0.00824,MBALAMBALA DISP,1199,GARISSA,BALAMBALA,4,MOH
39.143,0.66606,MODOGASHE HEALTH CENTRE,1208,GARISSA,MODOGASHE,3,MOH
39.8558,-0.68774,NANIGHI DISP,1201,GARISSA,BURA,4,MOH
39.366,-0.10131,SAKA DISP,1202,GARISSA,SANKURI,4,MOH
40.8289,-1.39017,SANGAILU DISP,2500,GARISSA,SANGAILU,4,MOH
39.4755,-0.16575,SANKURI DISP,1203,GARISSA,SANKURI,4,MOH
39.6306,0.24409,SHANTABAK DISP.,3480,GARISSA,SHANT-ABAK,4,MOH
39.6983,-0.499716,Y.M.A. DISP,1204,GARISSA,CENTRAL,4,MISS
,,AFRICAN MUSLIM AGENCY DISP,,MANDERA,,4,MISS
,,AMBALO DISP,,MANDERA,,4,NGO
41.582429,3.537979,ARABIA DISP,1210,MANDERA,FINO,4,MOH
40.867,3.33798,AS-HABITO DISP,4375,MANDERA,ASHABITO,4,MOH
40.35221,3.911244,BANISA DISP,1211,MANDERA,BANISA,4,MOH
39.862221,3.42234,DANDU DISP,4376,MANDERA,DANDU,4,MOH
40.935457,2.784906,ELWAK HEALTH CENTRE,1212,MANDERA,ELWAK,3,MOH
41.619151,3.950161,KALALIYO DISP,2532,MANDERA,KHALALIO,4,MOH
40.7295,2.37357,KUTULO DISP,3395,MANDERA,KOTULO,4,MOH
41.490197,3.801036,LIBEHIA DISP,3955,MANDERA,LIBEHIA,4,MOH
40.766331,4.277132,MALKA MARI DISP,,MANDERA,MALKAMARI,4,MOH
41.861814,3.954424,MANDERA DISTRICT HOSPITAL,1215,MANDERA,CENTRAL,1,MOH
41.203319,3.935952,RHAMU HEALTH CENTRE,1213,MANDERA,RHAMU,3,MOH
40.65181,2.994166,SHIBIR FATUMA DISP,4377,MANDERA,SHIMBIR FATUMA,4,MISS
40.215075,3.372873,TAKABA HEALTH CENTRE,1214,MANDERA,TAKABA,3,MOH
40.865514,3.140544,WARGADUD DISP,,MANDERA,WARGADUD,4,MOH
39.716838,0.602452,ABAKORE DISP,,WAJIR,HABASWEIN,4,MOH
39.968956,1.71834,AFRICA MUSLIM AGENCY DISP,3487,WAJIR,GRIFTU,4,MISS
39.594792,3.070257,AJAWA DISP,1216,WAJIR,GURAR,4,MOH
39.0811,2.0912,ARBAJAHAN DISP,3826,WAJIR,GRIFTU,4,MOH
40.801336,0.397138,BIYAMATHOW DISP,,WAJIR,SEBULE,4,MOH
39.461783,3.019239,BUNA HEALTH CENTRE,1229,WAJIR,BUNA,3,MOH
39.41198,3.378396,BUTE HEALTH CENTRE,1230,WAJIR,BUTE,3,MOH
39.9967,2.38608,DAMBAS DISP,,WAJIR,TARBAJ,4,MOH
39.731182,3.280454,DANABA DISP,,WAJIR,GURAR,4,MOH
40.984295,0.986078,DIFF DISP,1217,WAJIR,DIFF,4,MOH
40.2461,2.532,ELBEN DISP,1218,WAJIR,TARBAJ,4,MOH
39.638052,2.407958,ELDAS DISP,1219,WAJIR,ELDAS,4,MOH
39.7807,2.04256,GRIFTU HEALTH CENTRE,1220,WAJIR,GRIFTU,3,MOH
39.548819,3.298583,GURAR DISP,1221,WAJIR,GURAR,4,MOH
39.504103,0.969016,HABASWEIN HEALTH CENTRE,1222,WAJIR,HABASWEIN,3,MOH
39.449424,1.521219,HADADO HEALTH CENTRE,3953,WAJIR,HADADO,3,MOH
40.532626,2.075658,KHOROF HARAR H C,1223,WAJIR,WAJIR-BOR,3,MOH
40.153837,2.992912,MANSA DISP,4457,WAJIR,TARBAJ,4,MOH
40.309499,0.233169,SABULI DISP,1224,WAJIR,SEBULE,4,MOH
40.546779,0.682761,SARIF DISP,,WAJIR,SEBULE,4,MOH
40.09833,2.152085,TARBAJ HEALTH CENTRE,1225,WAJIR,TARBAJ,3,MOH
39.764579,1.880258,TULATULA DISP,,WAJIR,GRIFTU,4,MOH
39.931893,1.785442,WAGALLA DISP,1226,WAJIR,GRIFTU,4,MOH
40.058645,1.771501,WAJIR AIC DISP,2871,WAJIR,CENTRAL,4,MISS
40.805737,1.954284,WAJIR BOR DISP,1227,WAJIR,WAJIR-BOR,4,MOH
40.0396,1.6909,WAJIR DISTRICT HOSPITAL,1231,WAJIR,GRIFTU,1,MOH
,,AL IBRAHIM HEALTH CENTRE,,NAIROBI,,3,MISS
,,APOSTLES OF JESUS DISP,3126,NAIROBI,,4,MISS
36.95676,-1.28724,APTC  EMBAKASI HEALTH CENTRE,56,NAIROBI,EMBAKASI,3,LA
36.77192,-1.30508,AYANY ESTATE HEALTH CENTRE,2541,NAIROBI,KIBERA,3,LA
36.88416,-1.2441,BABA DOGO HEALTH CENTRE,2542,NAIROBI,KASARANI,3,LA
36.86215,-1.29221,BAHATI DISP,58,NAIROBI,MAKADARA,4,MISS
36.861624,-1.286682,BAHATI HEALTH CENTRE,131,NAIROBI,PUMWANI,3,LA
,,BETTER LIVING CENTRE SDA DISP,2684,NAIROBI,,4,MISS
,,BOHRA ROAD DISP NAIROBI,4,NAIROBI,,4,LA
36.83112,-1.27123,BORAH ROAD DISP,3356,NAIROBI,CENTRAL,4,LA
,,BR. ANDRE DISP,3637,NAIROBI,,4,MISS
,,CALEDONIA DISP,59,NAIROBI,,4,MISS
36.85212,-1.28334,CALIFORNIA HC,2546,NAIROBI,PUMWANI,3,LA
36.84111,-1.26341,CATHOLIC DISP,3341,NAIROBI,CENTRAL,4,MISS
36.87223,-1.28315,CHARLES NEW ROAD HC,8,NAIROBI,MAKADARA,3,LA
,,CHRISTIAN MEDICAL AID DISP,,NAIROBI,,4,MISS
,,COMMUNITY HEALTH DISP,,NAIROBI,,4,MISS
,,CRESCENT MEDICAL AID BIAFRA,2543,NAIROBI,,4,MISS
36.85221,-1.26114,CRESCENT MEDICAL AID EASTLEIGH,2615,NAIROBI,CENTRAL,4,MISS
36.89223,-1.31415,CRESCENT MEDICAL AID MUKURU,2662,NAIROBI,EMBAKASI,4,MISS
36.83111,-1.28141,CRESENT MEDICAL AID KENYA,2549,NAIROBI,CENTRAL,4,MISS
36.90223,-1.24474,DANDORA 2 HEALTH CENTRE,2550,NAIROBI,EMBAKASI,3,LA
36.88775,-1.25761,DANDORA HEALTH CENTRE,132,NAIROBI,EMBAKASI,3,LA
,,DIS. INVEST. EDC SECT DISP,64,NAIROBI,,4,MOH
,,DOYA DISP,2555,NAIROBI,,4,MOH
36.85029,-1.26869,EASTLEIGH HEALTH CENTRE,12,NAIROBI,PUMWANI,3,LA
36.85121,-1.27223,EASTLEIGH LINES HC,13,NAIROBI,PUMWANI,3,LA
,,EDELVALE HC,14,NAIROBI,,3,LA
,,ELIMU MED. DISP,2619,NAIROBI,,4,MOH
36.91262,-1.30795,EMBAKASI DISP,15,NAIROBI,EMBAKASI,4,LA
,,FAMILY WELFARE & PLANNING DISP,16,NAIROBI,,4,LA
,,FATIMA DISP MISSION,,NAIROBI,,4,MISS
36.830249,-1.253175,GETRUDES GARDENS CHILDREN'S HOSP,151,NAIROBI,WESTLANDS,1,MISS
36.81763,-1.25736,HIGHRIDGE HC,17,NAIROBI,WESTLANDS,3,LA
36.85865,-1.28773,HONO CRESCENT HC,18,NAIROBI,PUMWANI,3,LA
36.85214,-1.26111,HURUMA LIONS CLINIC,2678,NAIROBI,CENTRAL,3,NGO
,,HURUMA LIONS CLINIC,19,NAIROBI,,4,NGO
,,INDUSTRIAL AREA CHESOI DISP,79,NAIROBI,,4,LA
36.86157,-1.30783,INDUSTRIAL AREA LUNGA/L DISP,80,NAIROBI,MAKADARA,4,LA
36.83661,-1.29805,INDUSTRIAL AREA PRISON HEALTH CE,,NAIROBI,MAKADARA,3,MOH
36.82171,-1.28358,INOCULATION CENTRE DISP,81,NAIROBI,CENTRAL,4,LA
36.8205,-1.27776,JAMIA CRESCENT MEDICAL AID DISP,21,NAIROBI,CENTRAL,4,MISS
36.87117,-1.28896,JERICHO HEALTH CENTRE,2630,NAIROBI,MAKADARA,3,LA
36.86548,-1.28258,JERUSALEM HEALTH CENTRE,22,NAIROBI,PUMWANI,3,LA
,,JINNAH AVENUE HC,23,NAIROBI,,3,LA
36.72543,-1.26114,KABETE TECHNICAL AND TRADE DISP,89,NAIROBI,WESTLANDS,4,MOH
,,KABIRO KAWANGWARE DISP,,NAIROBI,,4,NGO
36.91278,-1.18716,KAHAWA HEALTH CENTRE,24,NAIROBI,KASARANI,3,LA
36.84534,-1.29282,KALOLENI SHC,184,NAIROBI,MAKADARA,3,LA
36.89342,-1.1761,KAMITI HEALTH CENTRE,136,NAIROBI,KASARANI,3,MOH
36.74933,-1.26461,KANGEMI HEALTH CENTRE,137,NAIROBI,WESTLANDS,3,LA
36.70876,-1.32211,KAREN HEALTH CENTRE,138,NAIROBI,KIBERA,3,LA
36.88214,-1.26314,KARIOBANGI CATHOLIC DISP,,NAIROBI,EMBAKASI,4,MISS
36.88111,-1.25123,KARIOBANGI CHESIRE HOME DISP,90,NAIROBI,KASARANI,4,MISS
36.87978,-1.25174,KARIOBANGI HEALTH CENTRE,139,NAIROBI,KASARANI,3,LA
36.87978,-1.25174,KARIOBANGI MCH / FP DISP,2634,NAIROBI,KASARANI,4,LA
36.83552,-1.2763,KARIOKOR DISP,26,NAIROBI,CENTRAL,4,LA
36.90139,-1.21821,KASARANI SHC,185,NAIROBI,KASARANI,3,LA
,,KATWEKERA PHC,,NAIROBI,,3,NGO
,,KAWANGWARE CATHOLIC DISP,,NAIROBI,,4,MISS
36.74052,-1.28405,KAWANGWARE HEALTH CENTRE,2635,NAIROBI,DAGORETTI,3,LA
36.91668,-1.26649,KAYOLE HEALTH CENTRE,2636,NAIROBI,EMBAKASI,3,MOH
36.806388,-1.300876,KENYATTA NATIONAL HOSPITAL,157,NAIROBI,DAGORETTI,2,MOH
,,KIBAGARE GOOD NEWS DISP,3127,NAIROBI,,4,MISS
,,KIBERA CATHOLIC DISP,96,NAIROBI,,4,MISS
,,KIBERA CRESCENT MEDICAL AID DISP,2642,NAIROBI,,4,MISS
36.8228,-1.28704,KICC DISP,134,NAIROBI,CENTRAL,4,MOH
36.81064,-1.28551,LADY NORTH HEALTH CENTRE,2647,NAIROBI,WESTLANDS,3,MOH
36.8231,-1.28012,LAGOS HC,28,NAIROBI,CENTRAL,3,LA
36.7783,-1.31814,LANGATA HEALTH CENTRE,141,NAIROBI,KIBERA,3,MOH
,,LIKONI ROAD SDA DISP,119,NAIROBI,,4,MISS
,,LION'S MATHARE DISP,30,NAIROBI,,4,MOH
36.92214,-1.23415,LITTLE SISTERS OF ST FRANCIS,3636,NAIROBI,KASARANI,4,MISS
36.82667,-1.29131,LOCO HEALTH CENTRE,98,NAIROBI,MAKADARA,3,MOH
36.7447,-1.23768,LOWER KABETE SHC,186,NAIROBI,WESTLANDS,3,LA
36.86157,-1.30783,LUNGA LUNGA HEALTH CENTRE,3351,NAIROBI,MAKADARA,3,LA
36.87226,-1.29431,MAKADARA HC,32,NAIROBI,MAKADARA,3,LA
36.84754,-1.29394,MAKONGENI HC,33,NAIROBI,MAKADARA,3,LA
,,MARIA DOMINIQUE DISP,3349,NAIROBI,,4,MISS
,,MARIA IMMACULATE DISP(BAHATI),102,NAIROBI,,4,MISS
36.86451,-1.28894,MARINGO HC,34,NAIROBI,MAKADARA,3,LA
,,MARY IMMACULATE DISP (KILIMANI),103,NAIROBI,,4,MISS
36.833478,-1.305393,MATER MISERICORDIAE HOSPITAL,159,NAIROBI,MAKADARA,1,MISS
36.86485,-1.25323,MATHARE NORTH HEALTH CENTRE,2656,NAIROBI,KASARANI,3,LA
,,MATHARE VALLEY DISP,,NAIROBI,,4,MISS
36.844302,-1.259489,MATHARI MENTAL HOSPITAL,160,NAIROBI,CENTRAL,1,MOH
36.802242,-1.307925,MBAGATHI DISTRICT HOSPITAL,154,NAIROBI,DAGORETTI,1,MOH
,,MBOTELA HC,37,NAIROBI,,3,LA
,,MILIMANI SDA DISP,2660,NAIROBI,,4,MISS
,,MURIRE DISP,2716,NAIROBI,,4,MOH
36.8332,-1.2834,MUTHURWA DISP,38,NAIROBI,CENTRAL,4,LA
,,NAIROBI EVANGELICAL GRADUATE DIS,107,NAIROBI,,4,MISS
36.836938,-1.309483,NAIROBI SOUTH B HEALTH CENTRE,39,NAIROBI,MAKADARA,3,MOH
36.81121,-1.3101,NAIROBI WEST SISTERS DISP,3350,NAIROBI,KIBERA,4,MISS
36.82251,-1.28894,NGAIRA AVENUE DISP,2670,NAIROBI,CENTRAL,4,LA
36.83046,-1.27077,NGARA HEALTH CENTRE,143,NAIROBI,CENTRAL,3,LA
36.7576,-1.29896,NGONG ROAD SHC,187,NAIROBI,DAGORETTI,3,LA
36.86425,-1.24995,NYS HEALTH CENTRE,106,NAIROBI,KASARANI,3,MOH
36.86425,-1.24995,NYS PUBLIC HEALTH,4381,NAIROBI,KASARANI,3,MOH
36.871071,-1.289024,OFAFA JERICHO SHC,188,NAIROBI,MAKADARA,3,LA
36.870483,-1.288752,OFAFA NAIROBI HC,41,NAIROBI,MAKADARA,3,LA
36.872106,-1.247265,P & T MCH DISP,110,NAIROBI,KASARANI,4,MOH
36.83815,-1.26741,PANGANI HC,42,NAIROBI,CENTRAL,3,LA
,,PRECIOUS BLOOD SISTERS DISP,3635,NAIROBI,,4,MISS
36.911501,-1.268017,PROVIDE INTERNATIONAL DISP,3590,NAIROBI,EMBAKASI,4,NGO
36.84565,-1.27777,PUMWANI DISP,47,NAIROBI,PUMWANI,4,LA
,,REDEEMED GOSPEL CHURCH HEALTH CE,,NAIROBI,,4,MISS
36.82251,-1.28894,RHODES AVENUE & CHEST & T. HEALT,48,NAIROBI,CENTRAL,3,LA
36.73649,-1.27883,RIRUTA CATHOLIC DISP,117,NAIROBI,DAGORETTI,4,MISS
36.74052,-1.28405,RIRUTA HEALTH CENTRE,144,NAIROBI,DAGORETTI,3,LA
,,RUARAKA HC,49,NAIROBI,,3,LA
,,SANDFORD ROAD DISP,50,NAIROBI,,4,LA
,,SDA DISP KIBERA,,NAIROBI,,4,MISS
36.84511,-1.28729,SHAURI MOYO DISP,51,NAIROBI,PUMWANI,4,LA
36.85,-1.29,SHAURI MOYO SDA DISP NAIROBI,120,NAIROBI,PUMWANI,4,MISS
,,SISTERS OF MERCY MAKADARA,101,NAIROBI,,4,MISS
36.91808,-1.26916,SOWETO/KAYOLE DISP,3352,NAIROBI,EMBAKASI,4,LA
36.82471,-1.27904,SPECIAL STD DISP,122,NAIROBI,CENTRAL,4,MOH
,,ST JOHN'S MCH/FP DISP,3359,NAIROBI,,4,MISS
,,ST. JOSEPH MUKASA,,NAIROBI,,4,MISS
,,ST. JOSEPH THE WORKER DISP,3111,NAIROBI,,4,MISS
,,ST. ODILLIAS DISP,2691,NAIROBI,,4,MISS
36.79915,-1.28435,STATE HOUSE DISP,124,NAIROBI,WESTLANDS,4,MOH
36.80337,-1.27623,STATE HOUSE ROAD DISP,53,NAIROBI,WESTLANDS,4,LA
36.80617,-1.29582,UHURU AP CAMP DISP,3333,NAIROBI,DAGORETTI,4,MOH
36.79868,-1.28994,ULINZI HOUSE MIR DISP,99,NAIROBI,WESTLANDS,4,MOH
36.88726,-1.27931,UMOJA HEALTH CENTRE,145,NAIROBI,EMBAKASI,3,LA
,,UNDUGU SOCIETY DISP,,NAIROBI,,4,NGO
36.85362,-1.25503,UTALII COLLEGE DISP,2641,NAIROBI,KASARANI,4,MOH
,,UZIMA DISP,129,NAIROBI,,4,MISS
36.71516,-1.27885,WAITHAKA HEALTH CENTRE,147,NAIROBI,DAGORETTI,3,LA
,,WESTLANDS DISP,130,NAIROBI,,4,MISS
36.79847,-1.25851,WESTLANDS DISP,54,NAIROBI,WESTLANDS,4,LA
36.801751,-1.260665,WESTLANDS HEALTH CENTRE,148,NAIROBI,WESTLANDS,3,LA
36.80738,-1.30921,WILSON AIRPORT DISP,3337,NAIROBI,KIBERA,4,MOH
36.77706,-1.30227,WOODLEY DISP,55,NAIROBI,DAGORETTI,4,LA
34.41064,-0.15902,ABIDHA HC,1343,BONDO,RARIEDA,3,MOH
34.27613,-0.17618,ANYUONGI DISP,,BONDO,BONDO,4,MOH
34.35579,-0.06953,ARO COMMUNITY HOSP.,,BONDO,BONDO,1,NGO
34.2745,-0.09021,BONDO DISTRICT HOSPITAL,1367,BONDO,BONDO,1,MOH
34.2905,-0.09021,GOBEI DISP,2467,BONDO,BONDO,4,MOH
34.0248,-0.0341,GOT AGULU HEALTH CENTRE,1346,BONDO,USIGU,3,MOH
34.1315,-0.0309,GOT MATAR DISP,1347,BONDO,USIGU,4,MOH
34.25665,-0.22851,KAGWA DISP,2649,BONDO,MADIANY,4,MOH
34.25637,-0.22469,KAGWA SDA HC,,BONDO,MADIANY,3,MISS
34.17491,-0.08601,KAPIYO DISP,4250,BONDO,BONDO,4,MOH
34.3224,-0.28134,MADIANY HEALTH CENTRE,1368,BONDO,MADIANY,3,MOH
34.0103,-0.1325,MAGETA DISP,165,BONDO,USIGU,4,MOH
34.34066,-0.16223,MAHAYA DISP,,BONDO,RARIEDA,4,MOH
34.3252,-0.3353,MANGA BAPTIST CLINIC DISP,,BONDO,MADIANY,4,MISS
34.27609,-0.25252,MANYUANDA HEALTH CENTRE,1350,BONDO,MADIANY,3,MOH
34.292727,-0.20811,MASALA DISP,3839,BONDO,MADIANY,4,MOH
34.278,-0.31856,MISORI DISP,4251,BONDO,MADIANY,4,MOH
34.3121,-0.36255,NAYA DISP,1353,BONDO,MADIANY,4,MOH
34.37752,-0.06975,NDORI DISP,3569,BONDO,RARIEDA,4,MISS
34.29557,-0.17535,NYAGOKO DISP,35,BONDO,RARIEDA,4,MOH
34.21883,-0.21243,NYANGUNDA SELF HELP DISP,,BONDO,BONDO,4,NGO
,,OBAGA DISP,,BONDO,RARIEDA,4,MOH
34.377777,-0.16875,ONGIELO DISP,1357,BONDO,RARIEDA,4,MOH
,,PAP KODERO,,BONDO,MADIANY,4,MOH
34.39692,-0.11288,SARADIDI HEALTH CENTRE,1385,BONDO,RARIEDA,3,MOH
34.284311,-0.382719,ST. CAMILUS DISPENSARY,,BONDO,MADIANY,4,MISS
34.35698,-0.13782,ST. ELIZABETH LWAK MISS. HOSPITA,,BONDO,RARIEDA,1,MISS
34.19813,-0.15277,ST.ANNE NYANGOMA DISP AND MCH,2554,BONDO,BONDO,4,MISS
34.10807,0.01815,ULUNGO DISP,4480,BONDO,USIGU,4,MOH
34.0994,-0.0568,USIGU DISP,1365,BONDO,USIGU,4,MOH
34.16597,-0.16139,UYAWI DISP,1366,BONDO,BONDO,4,MOH
34.66809,-0.83089,BOIGE DISP,4490,GUCHA,NYAMARAMBE,4,MOH
34.81434,-0.88272,CHIENGU SDA DISP,,GUCHA,NYACHEKI,4,MISS
34.72132,-0.9121,EBEREGE DISP,,GUCHA,KENYENYA,4,MOH
,,EGETONTO DISP,,GUCHA,OGEMBO,4,MOH
34.6593,-0.902367,ETAGO DISP,1232,GUCHA,ETAGO,4,MOH
34.82809,-0.89926,GESABAKWA DISP,3768,GUCHA,NYACHEKI,4,MOH
34.7289,-0.886333,KENYENYA HC,1238,GUCHA,KENYENYA,3,MOH
34.725225,-0.88964,KENYENYA SDA DISP,1489,GUCHA,OGEMBO,4,MISS
34.7811,-0.782267,KENYERERE  DISP,4762,GUCHA,SAMETA,4,MOH
34.7763,-0.814067,KIONYO DISP,3570,GUCHA,NYAMACHE,4,MOH
34.7966,-0.90464,MAGENA DISP,1241,GUCHA,KENYENYA,4,MOH
34.72318,-0.94649,MAGENCHE DISP,1242,GUCHA,KENYENYA,4,MOH
34.65434,-0.88877,MAKARA BAPTIST M. CENTRE,,GUCHA,ETAGO,4,MISS
34.648,-0.901017,METABURO DISP,4763,GUCHA,ETAGO,4,MISS
34.68447,-0.74101,MISESI DISP,3770,GUCHA,OGEMBO,4,MOH
34.6828,-0.967,MONIANKU HEALTH CENTRE,1243,GUCHA,ETAGO,3,MISS
34.6315,-0.886617,MOTICHO DISP,3287,GUCHA,ETAGO,4,MOH
34.62814,-0.80782,NDURU HEALTH CENTRE,1271,GUCHA,NYAMARAMBE,3,MOH
34.8772,-0.89071,NYACHEKI HEALTH CENTRE,1246,GUCHA,NYACHEKI,3,MOH
34.64843,-0.86685,NYAKEYO S.D.A DISP,4818,GUCHA,ETAGO,4,MISS
34.82805,-0.85352,NYAMACHE HEALTH CENTRE,1259,GUCHA,NYAMACHE,3,MOH
34.80025,-0.79123,NYAMAGWA HEALTH CENTRE,1260,GUCHA,SAMETA,3,MISS
34.74936,-0.75958,NYANSAKIA DISP,3571,GUCHA,SAMETA,4,MOH
34.63857,-0.74203,NYATIKE DISP,3381,GUCHA,NYAMARAMBE,4,MOH
34.725517,-0.793983,OGEMBO DISTRICT HOSPITAL,1261,GUCHA,OGEMBO,1,MOH
34.72154,-0.84779,OMOREMBE HEALTH CENTRE,169,GUCHA,OGEMBO,3,MISS
34.7322,-0.88487,RIOKINDO SDA HEALTH CENTRE,3015,GUCHA,KENYENYA,3,MISS
34.84671,-0.91962,RITUMBE HEALTH CENTRE,1252,GUCHA,NYACHEKI,3,MISS
34.71967,-0.86201,STELA MARIS SENGERA HEALTH CENTR,1263,GUCHA,OGEMBO,3,MISS
34.6665,-0.744517,TABAKA MISSION HOSPITAL,1266,GUCHA,NYAMARAMBE,1,MISS
34.6296,-0.625835,ASUMBI MISS H C,1438,HOMA BAY,RANGWE,3,MISS
34.49,-0.52066,FULL GOSPEL DISP,,HOMA BAY,ASEGO,4,MISS
34.2553,-0.752199,GOT KOJOWI H C,385,HOMA BAY,NYARONGI,3,MOH
34.493117,-0.50646,GOT KOKECH FULL GOSPEL DISP,3858,HOMA BAY,ASEGO,4,MISS
34.4599,-0.52474,HOMA BAY DISTRICT HOSPITAL,1470,HOMA BAY,ASEGO,1,MOH
34.530727,-0.541582,KAMRERI (COG) DISP,2099,HOMA BAY,RANGWE,4,MISS
34.51781,-0.69557,KANYAMKAGO OBER DISP,3331,HOMA BAY,RIANA,4,MOH
34.591528,-0.464907,KIRANDA DISP,3224,HOMA BAY,RANGWE,4,MISS
34.307,-0.67757,LAMBWE FOREST DISP,1399,HOMA BAY,NDHIWA,4,MOH
34.5158,-0.69035,MAGINA H C,1401,HOMA BAY,RIANA,3,MOH
34.459601,-0.528492,MALELA DISP,1403,HOMA BAY,ASEGO,4,MISS
34.39193,-0.58486,MALELA DISP,1100,HOMA BAY,NDHIWA,4,MOH
34.6169,-0.4932,MANYATTA S D A HOSPITAL,3128,HOMA BAY,RANGWE,1,MISS
34.5061,-0.663833,MARINDI DISP,1404,HOMA BAY,ASEGO,4,MOH
34.3364,-0.68961,MIROGI MISS H C,1453,HOMA BAY,NDHIWA,3,MISS
34.3322,-0.732657,NDHIWA H C,1455,HOMA BAY,NDHIWA,3,MOH
34.5812,-0.50254,NDIRU H C,1456,HOMA BAY,RANGWE,3,MOH
34.5293,-0.507608,NYAGORO H C,1412,HOMA BAY,RANGWE,3,MOH
34.57,-0.65,NYAGWETHE DISP,3479,HOMA BAY,RANGWE,4,MISS
34.26434,-0.75899,NYARONGI DISP,686,HOMA BAY,NYARONGI,4,MOH
34.4258,-0.75021,OBER KABUOCH DISP,4361,HOMA BAY,RIANA,4,MOH
34.4844,-0.69451,OBERA HEALTH CENTRE,,HOMA BAY,RIANA,3,MOH
34.5003,-0.58438,OGANDE C P K DISP,2952,HOMA BAY,ASEGO,4,MISS
34.4653,-0.73978,OMBO KACHIENG DISP,3417,HOMA BAY,RIANA,4,MOH
34.36588,-0.72574,OYARO DISP,3578,HOMA BAY,NDHIWA,4,MOH
34.464,-0.82374,PALA H C,1426,HOMA BAY,RIANA,3,MOH
34.5988,-0.615395,RANGWE HC,1428,HOMA BAY,RANGWE,3,MOH
34.601,-0.61017,RANGWE S D A DISP,3177,HOMA BAY,RANGWE,4,MISS
34.35348,-0.76837,RAPETH DISP,4465,HOMA BAY,NYARONGI,4,MOH
34.617906,-0.53562,WAWARE SINDO DISP,,HOMA BAY,RANGWE,4,MISS
,,ENTANGA DISP,,KISII CENTRAL,MARANI,4,MOH
34.7801,-0.546833,ERAMBA DISP,3767,KISII CENTRAL,MARANI,4,MOH
34.90588,-0.86716,GESUSU SDA HEALTH CENTRE,1233,KISII CENTRAL,MASABA,3,MISS
34.9087,-0.8712,GESUSU SUB DISTRICT HOSPITAL,3769,KISII CENTRAL,MASABA,1,MOH
34.9046,-0.805683,IBACHO HEALTH CENTRE,,KISII CENTRAL,MASABA,3,MOH
34.85208,-0.77724,IBENO HEALTH CENTRE,1254,KISII CENTRAL,KEUMBU,3,MOH
34.7812,-0.62433,IRANDA SUB- HEALTH CENTRE,1235,KISII CENTRAL,MOSOCHO,3,MOH
34.8628,-0.571717,ISECHA DISP,1486,KISII CENTRAL,MARANI,4,MOH
34.6799,-0.691033,IYABE SUB HEALTH CENTRE,1236,KISII CENTRAL,SUNEKA,3,MOH
34.841,-0.54225,KEGOGI DISP,1237,KISII CENTRAL,MARANI,4,MOH
34.8467,-0.731217,KEUMBU SUB DISTRICT HOSPITAL,1257,KISII CENTRAL,KEUMBU,1,MOH
34.8826,-0.828667,KIAMOKOMA DISP,1239,KISII CENTRAL,MASABA,4,MOH
34.7811,-0.718833,KIOGORO SUB-HEALTH CENTRE,1240,KISII CENTRAL,KEUMBU,3,MOH
34.7704,-0.66815,KISII DISTRICT HOSPITAL,1265,KISII CENTRAL,TOWNSHIP,1,MOH
34.7982,-0.575467,MARANI HEALTH CENTRE,1270,KISII CENTRAL,MARANI,3,MOH
34.76971,-0.66945,MARIE STOPES DISP,,KISII CENTRAL,TOWNSHIP,4,NGO
34.9404,-0.858733,MASIMBA HEALTH CENTRE,1258,KISII CENTRAL,MASABA,3,MOH
34.7091,-0.714917,MASONGO DISP,4804,KISII CENTRAL,SUNEKA,4,MOH
34.7202,-0.6285,MATONGO DISP,4805,KISII CENTRAL,SUNEKA,4,MOH
34.74131,-0.59759,MOSOCHO HEALTH CENTRE,1244,KISII CENTRAL,MOSOCHO,3,MISS
34.74403,-0.6522,NYABURURU MISS DISP,1245,KISII CENTRAL,TOWNSHIP,4,MISS
34.81804,-0.58266,NYAGESENDA SDA DISP,1247,KISII CENTRAL,MARANI,4,MISS
